[{"name":"PeekYou","category_code":"tech","founded_year":2012,"total_money_raised":"$1.83 M","geolocation":{"type":"Point","coordinates":[-73.985506,40.757929]}},{"name":"GENWI","category_code":"tech","founded_year":2010,"total_money_raised":"$7.1 M","geolocation":{"type":"Point","coordinates":[-111.9035,33.8171]}},{"name":"Fixya","category_code":"tech","founded_year":2013,"total_money_raised":"$8 M","geolocation":{"type":"Point","coordinates":[-122.323895,37.566879]}},{"name":"RazorGator","category_code":"tech","founded_year":2011,"total_money_raised":"$58.8 M","geolocation":{"type":"Point","coordinates":[-118.445243,34.047312]}},{"name":"Social Gaming Network","category_code":"tech","founded_year":2011,"total_money_raised":"$17.1 M","geolocation":{"type":"Point","coordinates":[-122.161523,37.446823]}},{"name":"Social Gaming Network","category_code":"tech","founded_year":2011,"total_money_raised":"$17.1 M","geolocation":{"type":"Point","coordinates":[-122.161523,37.446823]}},{"name":"Skydeck","category_code":"tech","founded_year":2012,"total_money_raised":"$4 M","geolocation":{"type":"Point","coordinates":[-122.3254705,37.5645375]}},{"name":"Magento","category_code":"tech","founded_year":2010,"total_money_raised":"$22.5 M","geolocation":{"type":"Point","coordinates":[-118.243425,34.052187]}},{"name":"Pixsta","category_code":"tech","founded_year":2010,"total_money_raised":"\u00a33 M","geolocation":{"type":"Point","coordinates":[-0.208979,51.51819]}},{"name":"BrandYourself","category_code":"tech","founded_year":2009,"total_money_raised":"$1.5 M","geolocation":{"type":"Point","coordinates":[-71.24762,42.275263]}},{"name":"Titan Gaming","category_code":"tech","founded_year":2010,"total_money_raised":"$1 M","geolocation":{"type":"Point","coordinates":[-113.515769,53.544711]}},{"name":"Prezi","category_code":"tech","founded_year":2009,"total_money_raised":"$14.3 M","geolocation":{"type":"Point","coordinates":[19.059078,47.490346]}},{"name":"Integrate","category_code":"tech","founded_year":2010,"total_money_raised":"$34.8 M","geolocation":{"type":"Point","coordinates":[-74.0353787,40.7481039]}},{"name":"Burt","category_code":"tech","founded_year":2009,"total_money_raised":"$3.5 M","geolocation":{"type":"Point","coordinates":[18.036587,59.337864]}},{"name":"Inuvo","category_code":"tech","founded_year":2009,"total_money_raised":"$4.2 M","geolocation":{"type":"Point","coordinates":[-82.702449,27.913011]}},{"name":"Integrate","category_code":"tech","founded_year":2010,"total_money_raised":"$34.8 M","geolocation":{"type":"Point","coordinates":[-74.0353787,40.7481039]}},{"name":"Burt","category_code":"tech","founded_year":2009,"total_money_raised":"$3.5 M","geolocation":{"type":"Point","coordinates":[18.036587,59.337864]}},{"name":"Inuvo","category_code":"tech","founded_year":2009,"total_money_raised":"$4.2 M","geolocation":{"type":"Point","coordinates":[-82.702449,27.913011]}},{"name":"Formspring","category_code":"tech","founded_year":2009,"total_money_raised":"$14.3 M","geolocation":{"type":"Point","coordinates":[-86.0547016,39.9052263]}},{"name":"isocket","category_code":"tech","founded_year":2009,"total_money_raised":"$10.1 M","geolocation":{"type":"Point","coordinates":[-122.321836,37.55909]}},{"name":"Yipit","category_code":"tech","founded_year":2010,"total_money_raised":"$7.55 M","geolocation":{"type":"Point","coordinates":[-73.987764,40.744618]}},{"name":"ScaleMP","category_code":"tech","founded_year":2009,"total_money_raised":"$8 M","geolocation":{"type":"Point","coordinates":[-122.0385792,37.3229727]}},{"name":"VisualOn","category_code":"tech","founded_year":2011,"total_money_raised":"$3.1 M","geolocation":{"type":"Point","coordinates":[-121.955879,37.270518]}},{"name":"Heyzap","category_code":"tech","founded_year":2009,"total_money_raised":"$7.97 M","geolocation":{"type":"Point","coordinates":[-122.4041485,37.7905538]}},{"name":"Meez","category_code":"tech","founded_year":2009,"total_money_raised":"$10.2 M","geolocation":{"type":"Point","coordinates":[-122.397582,37.785271]}},{"name":"Shutl","category_code":"tech","founded_year":2009,"total_money_raised":"\u00a37.66 M","geolocation":{"type":"Point","coordinates":[-0.1020265,51.5196135]}},{"name":"Tinychat","category_code":"tech","founded_year":2009,"total_money_raised":"$1.5 M","geolocation":{"type":"Point","coordinates":[-72.5196907,42.3756409]}},{"name":"BASH Gaming","category_code":"tech","founded_year":2010,"total_money_raised":"$1 M","geolocation":{"type":"Point","coordinates":[-122.0780632,37.5561712]}},{"name":"BASH Gaming","category_code":"tech","founded_year":2010,"total_money_raised":"$1 M","geolocation":{"type":"Point","coordinates":[-122.0780632,37.5561712]}},{"name":"AppNeta","category_code":"tech","founded_year":2010,"total_money_raised":"$55.8 M","geolocation":{"type":"Point","coordinates":[-71.24756,42.318138]}},{"name":"AppZero","category_code":"tech","founded_year":2009,"total_money_raised":"$15.1 M","geolocation":{"type":"Point","coordinates":[-71.1469003,42.6751888]}},{"name":"MyLikes","category_code":"tech","founded_year":2010,"total_money_raised":"$6.23 M","geolocation":{"type":"Point","coordinates":[-122.408914,37.777995]}},{"name":"Cognitive Match","category_code":"tech","founded_year":2009,"total_money_raised":"$10.2 M","geolocation":{"type":"Point","coordinates":[-0.0936688,51.5119418]}},{"name":"Cognitive Match","category_code":"tech","founded_year":2009,"total_money_raised":"$10.2 M","geolocation":{"type":"Point","coordinates":[-0.0936688,51.5119418]}},{"name":"Cognitive Match","category_code":"tech","founded_year":2009,"total_money_raised":"$10.2 M","geolocation":{"type":"Point","coordinates":[-0.0936688,51.5119418]}},{"name":"Cognitive Match","category_code":"tech","founded_year":2009,"total_money_raised":"$10.2 M","geolocation":{"type":"Point","coordinates":[-0.0936688,51.5119418]}},{"name":"Simulmedia","category_code":"tech","founded_year":2009,"total_money_raised":"$57.3 M","geolocation":{"type":"Point","coordinates":[-73.994797,40.727216]}},{"name":"GameChanger Media","category_code":"tech","founded_year":2009,"total_money_raised":"$3.64 M","geolocation":{"type":"Point","coordinates":[-74.0136605,40.7078343]}},{"name":"Z2Live","category_code":"tech","founded_year":2009,"total_money_raised":"$6.5 M","geolocation":{"type":"Point","coordinates":[-122.3399782,47.6103008]}},{"name":"Tongal","category_code":"tech","founded_year":2009,"total_money_raised":"$16 M","geolocation":{"type":"Point","coordinates":[-118.489748,34.007112]}},{"name":"Chartbeat","category_code":"tech","founded_year":2009,"total_money_raised":"$14.5 M","geolocation":{"type":"Point","coordinates":[-73.990967,40.73343]}},{"name":"Brandsclub","category_code":"tech","founded_year":2009,"total_money_raised":"$17 M","geolocation":{"type":"Point","coordinates":[-46.6388182,-23.5489433]}},{"name":"CoTweet","category_code":"tech","founded_year":2009,"total_money_raised":"$1.1 M","geolocation":{"type":"Point","coordinates":[-122.3764714,37.7405936]}},{"name":"Shareaholic","category_code":"tech","founded_year":2009,"total_money_raised":"$5.46 M","geolocation":{"type":"Point","coordinates":[-71.1032591,42.3647559]}},{"name":"Vaultive","category_code":"tech","founded_year":2009,"total_money_raised":"$11 M","geolocation":{"type":"Point","coordinates":[-74.011114,40.707954]}},{"name":"The Resumator","category_code":"tech","founded_year":2009,"total_money_raised":"$2.98 M","geolocation":{"type":"Point","coordinates":[-80.001933,40.438423]}},{"name":"ClickFuel","category_code":"tech","founded_year":2009,"total_money_raised":"$9 M","geolocation":{"type":"Point","coordinates":[-71.0680027,42.3406534]}},{"name":"Gravity","category_code":"tech","founded_year":2009,"total_money_raised":"$20.6 M","geolocation":{"type":"Point","coordinates":[-118.489681,34.007967]}},{"name":"Althea Systems","category_code":"tech","founded_year":2009,"total_money_raised":"$3 M","geolocation":{"type":"Point","coordinates":[77.6136847,12.9349604]}},{"name":"VistaGen Therapeutics","category_code":"tech","founded_year":2013,"total_money_raised":"$41.3 M","geolocation":{"type":"Point","coordinates":[-122.3843489,37.6656476]}},{"name":"Applied Genetics Technologies Corporation","category_code":"tech","founded_year":2009,"total_money_raised":"$78.1 M","geolocation":{"type":"Point","coordinates":[-82.4768036,29.7847641]}},{"name":"Solix Biofuels","category_code":"tech","founded_year":2009,"total_money_raised":"$68.8 M","geolocation":{"type":"Point","coordinates":[-105.0766501,40.5932386]}},{"name":"Ykone","category_code":"tech","founded_year":2009,"total_money_raised":"\u20ac1.5 M","geolocation":{"type":"Point","coordinates":[2.3509871,48.8566667]}},{"name":"Clovis Oncology","category_code":"tech","founded_year":2009,"total_money_raised":"$357 M","geolocation":{"type":"Point","coordinates":[-105.259041,40.026]}},{"name":"Layar","category_code":"tech","founded_year":2009,"total_money_raised":"$13.4 M","geolocation":{"type":"Point","coordinates":[4.8928722,52.3657578]}},{"name":"ticketea","category_code":"tech","founded_year":2010,"total_money_raised":"$5.73 M","geolocation":{"type":"Point","coordinates":[-3.7061764,40.4455155]}},{"name":"Delphi","category_code":"tech","founded_year":2009,"total_money_raised":"$8 M","geolocation":{"type":"Point","coordinates":[-83.16134,42.603532]}},{"name":"ChallengePost","category_code":"tech","founded_year":2009,"total_money_raised":"$4.6 M","geolocation":{"type":"Point","coordinates":[-74.00717,40.7408042]}},{"name":"Teambox","category_code":"tech","founded_year":2009,"total_money_raised":"$6.75 M","geolocation":{"type":"Point","coordinates":[2.1920231,41.4063346]}},{"name":"Tiny Speck","category_code":"tech","founded_year":2009,"total_money_raised":"$17.2 M","geolocation":{"type":"Point","coordinates":[-123.109217,49.2824551]}},{"name":"Getyoo","category_code":"tech","founded_year":2009,"total_money_raised":"\u20ac1.13 M","geolocation":{"type":"Point","coordinates":[4.3464721,50.83997]}}]