[{"name":"Starbucks","categories":"starbucks-brooklyn-78","city":"Brooklyn","geolocation":{"type":"Point","coordinates":[-73.993666,40.702818]}},{"name":"Starbucks","categories":"starbucks-brooklyn-21","city":"Brooklyn","geolocation":{"type":"Point","coordinates":[-73.9908062948,40.702668]}},{"name":"Starbucks","categories":"starbucks-new-york-524","city":"New York","geolocation":{"type":"Point","coordinates":[-74.000916,40.711018]}},{"name":"Starbucks","categories":"starbucks-new-york-217","city":"New York","geolocation":{"type":"Point","coordinates":[-74.004971,40.707122]}},{"name":"Starbucks","categories":"starbucks-new-york-567","city":"New York","geolocation":{"type":"Point","coordinates":[-74.006685,40.706487]}},{"name":"Starbucks","categories":"starbucks-new-york-290","city":"New York","geolocation":{"type":"Point","coordinates":[-74.007159,40.7047907]}},{"name":"Starbucks","categories":"starbucks-new-york-381","city":"New York","geolocation":{"type":"Point","coordinates":[-74.007387,40.708413]}},{"name":"Starbucks","categories":"starbucks-brooklyn-17","city":"Brooklyn","geolocation":{"type":"Point","coordinates":[-73.993978,40.694582]}},{"name":"Starbucks","categories":"starbucks-new-york-346","city":"New York","geolocation":{"type":"Point","coordinates":[-74.008696,40.706155]}},{"name":"Starbucks","categories":"starbucks-new-york-506","city":"New York","geolocation":{"type":"Point","coordinates":[-74.009001,40.704653]}},{"name":"Starbucks","categories":"starbucks-new-york-395","city":"New York","geolocation":{"type":"Point","coordinates":[-74.0067300015,40.711619]}},{"name":"Starbucks","categories":"starbucks-new-york-214","city":"New York","geolocation":{"type":"Point","coordinates":[-74.00799,40.71018]}},{"name":"Starbucks","categories":"starbucks-new-york-404","city":"New York","geolocation":{"type":"Point","coordinates":[-74.009313,40.708771]}},{"name":"Starbucks","categories":"starbucks-new-york-477","city":"New York","geolocation":{"type":"Point","coordinates":[-74.008533,40.710792]}},{"name":"Starbucks","categories":"starbucks-new-york-229","city":"New York","geolocation":{"type":"Point","coordinates":[-74.003125,40.715754]}},{"name":"Starbucks","categories":"starbucks-new-york-264","city":"New York","geolocation":{"type":"Point","coordinates":[-74.008202,40.712214]}},{"name":"Starbucks","categories":"starbucks-brooklyn-6","city":"Brooklyn","geolocation":{"type":"Point","coordinates":[-73.9867893,40.694047]}},{"name":"Starbucks","categories":"starbucks-new-york-436","city":"New York","geolocation":{"type":"Point","coordinates":[-74.010976,40.707437]}},{"name":"Starbucks","categories":"starbucks-new-york-143","city":"New York","geolocation":{"type":"Point","coordinates":[-74.01133,40.705162]}},{"name":"Starbucks","categories":"starbucks-new-york-131","city":"New York","geolocation":{"type":"Point","coordinates":[-74.005956,40.714843]}},{"name":"Starbucks","categories":"starbucks-new-york-295","city":"New York","geolocation":{"type":"Point","coordinates":[-74.011055,40.708758]}},{"name":"Starbucks","categories":"starbucks-brooklyn-14","city":"Brooklyn","geolocation":{"type":"Point","coordinates":[-73.991201,40.692464]}},{"name":"Starbucks","categories":"starbucks-new-york-345","city":"New York","geolocation":{"type":"Point","coordinates":[-74.010363,40.71091]}},{"name":"Starbucks","categories":"starbucks-new-york-278","city":"New York","geolocation":{"type":"Point","coordinates":[-73.999961,40.718252]}},{"name":"Starbucks","categories":"starbucks-brooklyn-40","city":"Brooklyn","geolocation":{"type":"Point","coordinates":[-73.982911,40.694975]}},{"name":"Starbucks","categories":"starbucks-new-york-434","city":"New York","geolocation":{"type":"Point","coordinates":[-74.012051,40.702149]}},{"name":"Starbucks","categories":"starbucks-new-york-128","city":"New York","geolocation":{"type":"Point","coordinates":[-74.009077,40.713782]}},{"name":"Starbucks","categories":"starbucks-new-york-574","city":"New York","geolocation":{"type":"Point","coordinates":[-74.011793,40.710372]}},{"name":"Starbucks","categories":"starbucks-new-york-511","city":"New York","geolocation":{"type":"Point","coordinates":[-74.01087,40.712117]}},{"name":"Starbucks","categories":"starbucks-brooklyn-32","city":"Brooklyn","geolocation":{"type":"Point","coordinates":[-73.988548,40.691795]}},{"name":"Starbucks","categories":"starbucks-new-york-428","city":"New York","geolocation":{"type":"Point","coordinates":[-73.989977,40.7193246]}},{"name":"Starbucks","categories":"starbucks-new-york-215","city":"New York","geolocation":{"type":"Point","coordinates":[-74.002524,40.718887]}},{"name":"Starbucks","categories":"starbucks-new-york-537","city":"New York","geolocation":{"type":"Point","coordinates":[-73.99913,40.719757]}},{"name":"Starbucks","categories":"starbucks-new-york-380","city":"New York","geolocation":{"type":"Point","coordinates":[-74.009003,40.715532]}},{"name":"Starbucks","categories":"starbucks-brooklyn-69","city":"Brooklyn","geolocation":{"type":"Point","coordinates":[-73.984355,40.691567]}},{"name":"Starbucks","categories":"starbucks-brooklyn-76","city":"Brooklyn","geolocation":{"type":"Point","coordinates":[-73.98632603,40.69074857]}},{"name":"Starbucks","categories":"starbucks-new-york-294","city":"New York","geolocation":{"type":"Point","coordinates":[-74.007305,40.718247]}},{"name":"Starbucks","categories":"starbucks-new-york-387","city":"New York","geolocation":{"type":"Point","coordinates":[-74.004979,40.7198874398]}},{"name":"Starbucks","categories":"starbucks-brooklyn-73","city":"Brooklyn","geolocation":{"type":"Point","coordinates":[-73.98254,40.691174]}},{"name":"Starbucks","categories":"starbucks-brooklyn-16","city":"Brooklyn","geolocation":{"type":"Point","coordinates":[-73.992748,40.688556]}},{"name":"Starbucks","categories":"starbucks-new-york-553","city":"New York","geolocation":{"type":"Point","coordinates":[-73.997942,40.722553]}},{"name":"Starbucks","categories":"starbucks-brooklyn-77","city":"Brooklyn","geolocation":{"type":"Point","coordinates":[-73.98563,40.68921]}},{"name":"Starbucks","categories":"starbucks-brooklyn-50","city":"Brooklyn","geolocation":{"type":"Point","coordinates":[-73.980887,40.689304]}},{"name":"Starbucks","categories":"starbucks-new-york-147","city":"New York","geolocation":{"type":"Point","coordinates":[-74.01116,40.72068]}}]