[{"name":"Starbucks","categories":"starbucks-brooklyn-78","city":"Brooklyn","geolocation":{"type":"Point","coordinates":[-73.993666,40.702818]}},{"name":"Starbucks","categories":"starbucks-brooklyn-21","city":"Brooklyn","geolocation":{"type":"Point","coordinates":[-73.9908062948,40.702668]}},{"name":"Starbucks","categories":"starbucks-new-york-524","city":"New York","geolocation":{"type":"Point","coordinates":[-74.000916,40.711018]}},{"name":"Starbucks","categories":"starbucks-new-york-217","city":"New York","geolocation":{"type":"Point","coordinates":[-74.004971,40.707122]}},{"name":"Starbucks","categories":"starbucks-new-york-567","city":"New York","geolocation":{"type":"Point","coordinates":[-74.006685,40.706487]}},{"name":"Starbucks","categories":"starbucks-new-york-290","city":"New York","geolocation":{"type":"Point","coordinates":[-74.007159,40.7047907]}},{"name":"Starbucks","categories":"starbucks-new-york-381","city":"New York","geolocation":{"type":"Point","coordinates":[-74.007387,40.708413]}},{"name":"Starbucks","categories":"starbucks-brooklyn-17","city":"Brooklyn","geolocation":{"type":"Point","coordinates":[-73.993978,40.694582]}},{"name":"Starbucks","categories":"starbucks-new-york-346","city":"New York","geolocation":{"type":"Point","coordinates":[-74.008696,40.706155]}},{"name":"Starbucks","categories":"starbucks-new-york-506","city":"New York","geolocation":{"type":"Point","coordinates":[-74.009001,40.704653]}},{"name":"Starbucks","categories":"starbucks-new-york-395","city":"New York","geolocation":{"type":"Point","coordinates":[-74.0067300015,40.711619]}},{"name":"Starbucks","categories":"starbucks-new-york-214","city":"New York","geolocation":{"type":"Point","coordinates":[-74.00799,40.71018]}},{"name":"Starbucks","categories":"starbucks-new-york-404","city":"New York","geolocation":{"type":"Point","coordinates":[-74.009313,40.708771]}},{"name":"Starbucks","categories":"starbucks-new-york-477","city":"New York","geolocation":{"type":"Point","coordinates":[-74.008533,40.710792]}},{"name":"Starbucks","categories":"starbucks-new-york-229","city":"New York","geolocation":{"type":"Point","coordinates":[-74.003125,40.715754]}},{"name":"Starbucks","categories":"starbucks-new-york-264","city":"New York","geolocation":{"type":"Point","coordinates":[-74.008202,40.712214]}},{"name":"Starbucks","categories":"starbucks-brooklyn-6","city":"Brooklyn","geolocation":{"type":"Point","coordinates":[-73.9867893,40.694047]}},{"name":"Starbucks","categories":"starbucks-new-york-436","city":"New York","geolocation":{"type":"Point","coordinates":[-74.010976,40.707437]}},{"name":"Starbucks","categories":"starbucks-new-york-143","city":"New York","geolocation":{"type":"Point","coordinates":[-74.01133,40.705162]}},{"name":"Starbucks","categories":"starbucks-new-york-131","city":"New York","geolocation":{"type":"Point","coordinates":[-74.005956,40.714843]}},{"name":"Starbucks","categories":"starbucks-new-york-295","city":"New York","geolocation":{"type":"Point","coordinates":[-74.011055,40.708758]}},{"name":"Starbucks","categories":"starbucks-brooklyn-14","city":"Brooklyn","geolocation":{"type":"Point","coordinates":[-73.991201,40.692464]}},{"name":"Starbucks","categories":"starbucks-new-york-345","city":"New York","geolocation":{"type":"Point","coordinates":[-74.010363,40.71091]}},{"name":"Starbucks","categories":"starbucks-new-york-278","city":"New York","geolocation":{"type":"Point","coordinates":[-73.999961,40.718252]}},{"name":"Starbucks","categories":"starbucks-brooklyn-40","city":"Brooklyn","geolocation":{"type":"Point","coordinates":[-73.982911,40.694975]}},{"name":"Starbucks","categories":"starbucks-new-york-434","city":"New York","geolocation":{"type":"Point","coordinates":[-74.012051,40.702149]}},{"name":"Starbucks","categories":"starbucks-new-york-128","city":"New York","geolocation":{"type":"Point","coordinates":[-74.009077,40.713782]}},{"name":"Starbucks","categories":"starbucks-new-york-574","city":"New York","geolocation":{"type":"Point","coordinates":[-74.011793,40.710372]}},{"name":"Starbucks","categories":"starbucks-new-york-511","city":"New York","geolocation":{"type":"Point","coordinates":[-74.01087,40.712117]}},{"name":"Starbucks","categories":"starbucks-new-york-560","city":"New York","geolocation":{"type":"Point","coordinates":[-74.012733,40.702775]}},{"name":"Starbucks","categories":"starbucks-brooklyn-32","city":"Brooklyn","geolocation":{"type":"Point","coordinates":[-73.988548,40.691795]}},{"name":"Starbucks","categories":"starbucks-new-york-189","city":"New York","geolocation":{"type":"Point","coordinates":[-74.0130866,40.704345]}},{"name":"Starbucks","categories":"starbucks-new-york-428","city":"New York","geolocation":{"type":"Point","coordinates":[-73.989977,40.7193246]}},{"name":"Starbucks","categories":"starbucks-new-york-575","city":"New York","geolocation":{"type":"Point","coordinates":[-74.013011,40.706894]}},{"name":"Starbucks","categories":"starbucks-new-york-215","city":"New York","geolocation":{"type":"Point","coordinates":[-74.002524,40.718887]}},{"name":"Starbucks","categories":"starbucks-new-york-537","city":"New York","geolocation":{"type":"Point","coordinates":[-73.99913,40.719757]}},{"name":"Starbucks","categories":"starbucks-new-york-380","city":"New York","geolocation":{"type":"Point","coordinates":[-74.009003,40.715532]}},{"name":"Starbucks","categories":"starbucks-new-york-111","city":"New York","geolocation":{"type":"Point","coordinates":[-74.014093,40.703281]}},{"name":"Starbucks","categories":"starbucks-new-york-510","city":"New York","geolocation":{"type":"Point","coordinates":[-74.014155,40.709198]}},{"name":"Starbucks","categories":"starbucks-brooklyn-69","city":"Brooklyn","geolocation":{"type":"Point","coordinates":[-73.984355,40.691567]}},{"name":"Starbucks","categories":"starbucks-brooklyn-76","city":"Brooklyn","geolocation":{"type":"Point","coordinates":[-73.98632603,40.69074857]}},{"name":"Starbucks","categories":"starbucks-new-york-294","city":"New York","geolocation":{"type":"Point","coordinates":[-74.007305,40.718247]}},{"name":"Starbucks","categories":"starbucks-new-york-387","city":"New York","geolocation":{"type":"Point","coordinates":[-74.004979,40.7198874398]}},{"name":"Starbucks","categories":"starbucks-brooklyn-73","city":"Brooklyn","geolocation":{"type":"Point","coordinates":[-73.98254,40.691174]}},{"name":"Starbucks","categories":"starbucks-brooklyn-16","city":"Brooklyn","geolocation":{"type":"Point","coordinates":[-73.992748,40.688556]}},{"name":"Starbucks","categories":"starbucks-new-york-417","city":"New York","geolocation":{"type":"Point","coordinates":[-74.015373,40.710914]}},{"name":"Starbucks","categories":"starbucks-new-york-553","city":"New York","geolocation":{"type":"Point","coordinates":[-73.997942,40.722553]}},{"name":"Starbucks","categories":"starbucks-brooklyn-77","city":"Brooklyn","geolocation":{"type":"Point","coordinates":[-73.98563,40.68921]}},{"name":"Starbucks Reserve","categories":"starbucks-reserve-new-york-4","city":"New York","geolocation":{"type":"Point","coordinates":[-74.015465,40.713821]}},{"name":"Starbucks","categories":"starbucks-brooklyn-50","city":"Brooklyn","geolocation":{"type":"Point","coordinates":[-73.980887,40.689304]}},{"name":"Starbucks","categories":"starbucks-brooklyn-5","city":"Brooklyn","geolocation":{"type":"Point","coordinates":[-73.990954,40.686221]}},{"name":"Starbucks","categories":"starbucks-new-york-147","city":"New York","geolocation":{"type":"Point","coordinates":[-74.01116,40.72068]}},{"name":"Starbucks","categories":"starbucks-new-york-180","city":"New York","geolocation":{"type":"Point","coordinates":[-73.987611,40.724759]}},{"name":"Starbucks","categories":"starbucks-new-york-140","city":"New York","geolocation":{"type":"Point","coordinates":[-73.995485,40.727212]}},{"name":"Starbucks","categories":"starbucks-new-york-377","city":"New York","geolocation":{"type":"Point","coordinates":[-74.000193,40.726835]}},{"name":"Starbucks","categories":"starbucks-new-york-562","city":"New York","geolocation":{"type":"Point","coordinates":[-74.005558,40.725774]}},{"name":"Starbucks","categories":"starbucks-brooklyn-63","city":"Brooklyn","geolocation":{"type":"Point","coordinates":[-73.970087,40.693017]}},{"name":"Starbucks","categories":"starbucks-new-york-545","city":"New York","geolocation":{"type":"Point","coordinates":[-73.98317,40.726837]}},{"name":"Starbucks","categories":"starbucks-new-york-392","city":"New York","geolocation":{"type":"Point","coordinates":[-73.996229,40.729569]}},{"name":"Starbucks","categories":"starbucks-new-york-386","city":"New York","geolocation":{"type":"Point","coordinates":[-74.007488,40.727629]}},{"name":"Starbucks","categories":"starbucks-brooklyn-19","city":"Brooklyn","geolocation":{"type":"Point","coordinates":[-73.977585,40.684619]}},{"name":"Starbucks Reserve","categories":"starbucks-reserve-new-york-3","city":"New York","geolocation":{"type":"Point","coordinates":[-73.994227,40.729941]}},{"name":"Starbucks","categories":"starbucks-brooklyn-71","city":"Brooklyn","geolocation":{"type":"Point","coordinates":[-73.97748,40.68448]}},{"name":"Starbucks","categories":"starbucks-new-york-134","city":"New York","geolocation":{"type":"Point","coordinates":[-73.991547,40.730017]}},{"name":"Starbucks","categories":"starbucks-new-york-109","city":"New York","geolocation":{"type":"Point","coordinates":[-73.98747,40.72944]}},{"name":"Starbucks","categories":"starbucks-new-york-498","city":"New York","geolocation":{"type":"Point","coordinates":[-73.992013,40.7313225389]}},{"name":"Starbucks","categories":"starbucks-new-york-366","city":"New York","geolocation":{"type":"Point","coordinates":[-74.002585,40.730715]}},{"name":"Starbucks","categories":"starbucks-brooklyn-29","city":"Brooklyn","geolocation":{"type":"Point","coordinates":[-73.975882,40.683138]}},{"name":"Starbucks","categories":"starbucks-new-york-210","city":"New York","geolocation":{"type":"Point","coordinates":[-73.983197,40.730826]}},{"name":"Starbucks","categories":"starbucks-new-york-137","city":"New York","geolocation":{"type":"Point","coordinates":[-73.999734,40.733082]}},{"name":"Starbucks","categories":"starbucks-new-york-153","city":"New York","geolocation":{"type":"Point","coordinates":[-74.002787,40.733209]}},{"name":"Starbucks","categories":"starbucks-new-york-173","city":"New York","geolocation":{"type":"Point","coordinates":[-73.986584,40.733792]}},{"name":"Starbucks","categories":"starbucks-brooklyn-61","city":"Brooklyn","geolocation":{"type":"Point","coordinates":[-73.962649,40.688845]}},{"name":"Starbucks","categories":"starbucks-new-york-152","city":"New York","geolocation":{"type":"Point","coordinates":[-73.980964,40.733037]}},{"name":"Starbucks","categories":"starbucks-new-york-154","city":"New York","geolocation":{"type":"Point","coordinates":[-74.006123,40.7336779]}},{"name":"Starbucks","categories":"starbucks-brooklyn-59","city":"Brooklyn","geolocation":{"type":"Point","coordinates":[-73.983038,40.676998]}},{"name":"Starbucks","categories":"starbucks-new-york-168","city":"New York","geolocation":{"type":"Point","coordinates":[-73.989804,40.735054]}},{"name":"Starbucks Reserve","categories":"starbucks-reserve-brooklyn","city":"Brooklyn","geolocation":{"type":"Point","coordinates":[-73.95828,40.71805]}},{"name":"Starbucks","categories":"starbucks-new-york-457","city":"New York","geolocation":{"type":"Point","coordinates":[-73.991076,40.736347]}},{"name":"Starbucks","categories":"starbucks-jersey-city-3","city":"Jersey City","geolocation":{"type":"Point","coordinates":[-74.033233,40.716051]}},{"name":"Starbucks","categories":"starbucks-new-york-307","city":"New York","geolocation":{"type":"Point","coordinates":[-73.996526,40.737046]}},{"name":"Starbucks","categories":"starbucks-brooklyn-34","city":"Brooklyn","geolocation":{"type":"Point","coordinates":[-73.973019,40.6775106867]}},{"name":"Starbucks","categories":"starbucks-new-york-558","city":"New York","geolocation":{"type":"Point","coordinates":[-74.0016916992,40.7372439238]}},{"name":"Starbucks","categories":"starbucks-new-york-446","city":"New York","geolocation":{"type":"Point","coordinates":[-73.988502,40.738003]}},{"name":"Starbucks","categories":"starbucks-brooklyn-68","city":"Brooklyn","geolocation":{"type":"Point","coordinates":[-73.95162,40.71258]}},{"name":"Starbucks","categories":"starbucks-new-york-300","city":"New York","geolocation":{"type":"Point","coordinates":[-73.978369,40.736534]}},{"name":"Starbucks","categories":"starbucks-new-york-522","city":"New York","geolocation":{"type":"Point","coordinates":[-73.999413,40.739242]}},{"name":"Starbucks","categories":"starbucks-new-york-495","city":"New York","geolocation":{"type":"Point","coordinates":[-73.983426,40.7387839]}},{"name":"Starbucks","categories":"starbucks-park-slope","city":"Park Slope","geolocation":{"type":"Point","coordinates":[-73.9714145,40.6756735]}},{"name":"Starbucks","categories":"starbucks-new-york-222","city":"New York","geolocation":{"type":"Point","coordinates":[-74.002577,40.739361]}},{"name":"Starbucks","categories":"starbucks-new-york-247","city":"New York","geolocation":{"type":"Point","coordinates":[-73.9840011597,40.7390441895]}},{"name":"Starbucks","categories":"starbucks-new-york-397","city":"New York","geolocation":{"type":"Point","coordinates":[-73.991228,40.740442]}},{"name":"Starbucks","categories":"starbucks-new-york-445","city":"New York","geolocation":{"type":"Point","coordinates":[-73.9867735,40.740194]}},{"name":"Starbucks","categories":"starbucks-brooklyn-3","city":"Brooklyn","geolocation":{"type":"Point","coordinates":[-73.977504,40.672022]}},{"name":"Starbucks","categories":"starbucks-new-york-379","city":"New York","geolocation":{"type":"Point","coordinates":[-73.984221,40.74054]}},{"name":"Starbucks","categories":"starbucks-jersey-city-2","city":"Jersey City","geolocation":{"type":"Point","coordinates":[-74.033095,40.726164]}},{"name":"Starbucks","categories":"starbucks-new-york-362","city":"New York","geolocation":{"type":"Point","coordinates":[-74.001302,40.7411261]}},{"name":"Starbucks","categories":"starbucks-new-york-121","city":"New York","geolocation":{"type":"Point","coordinates":[-73.990294,40.74169]}},{"name":"Starbucks","categories":"starbucks-brooklyn-55","city":"Brooklyn","geolocation":{"type":"Point","coordinates":[-73.9898273349,40.66932685]}},{"name":"Starbucks","categories":"starbucks-new-york-263","city":"New York","geolocation":{"type":"Point","coordinates":[-73.993326,40.741873]}},{"name":"Starbucks","categories":"starbucks-new-york-223","city":"New York","geolocation":{"type":"Point","coordinates":[-74.004645,40.741667]}},{"name":"Starbucks","categories":"starbucks-brooklyn-60","city":"Brooklyn","geolocation":{"type":"Point","coordinates":[-73.951458,40.723415]}},{"name":"Starbucks Reserve Roastery New York","categories":"starbucks-reserve-roastery-new-york-new-york-2","city":"New York","geolocation":{"type":"Point","coordinates":[-74.00535,40.7416]}},{"name":"Starbucks","categories":"starbucks-new-york-256","city":"New York","geolocation":{"type":"Point","coordinates":[-73.980784,40.741764]}},{"name":"Starbucks","categories":"starbucks-new-york-554","city":"New York","geolocation":{"type":"Point","coordinates":[-74.0003835106,40.7430196646]}},{"name":"Starbucks","categories":"starbucks-new-york-497","city":"New York","geolocation":{"type":"Point","coordinates":[-74.0003835106,40.7430196646]}},{"name":"Starbucks","categories":"starbucks-new-york-151","city":"New York","geolocation":{"type":"Point","coordinates":[-73.992076,40.7435853108]}},{"name":"Starbucks","categories":"starbucks-jersey-city-8","city":"Jersey City","geolocation":{"type":"Point","coordinates":[-74.041697,40.71942]}},{"name":"Starbucks","categories":"starbucks-new-york-181","city":"New York","geolocation":{"type":"Point","coordinates":[-73.988846,40.743839]}},{"name":"Starbucks","categories":"starbucks-new-york-303","city":"New York","geolocation":{"type":"Point","coordinates":[-73.995276,40.744294]}},{"name":"Starbucks","categories":"starbucks-brooklyn","city":"Brooklyn","geolocation":{"type":"Point","coordinates":[-73.954139,40.73052]}},{"name":"Starbucks","categories":"starbucks-jersey-city-5","city":"Jersey City","geolocation":{"type":"Point","coordinates":[-74.038036,40.726686]}},{"name":"Starbucks","categories":"starbucks-new-york-308","city":"New York","geolocation":{"type":"Point","coordinates":[-73.983712,40.744169]}},{"name":"Starbucks","categories":"starbucks-manhattan-243","city":"Manhattan","geolocation":{"type":"Point","coordinates":[-73.99102,40.74474]}},{"name":"Starbucks","categories":"starbucks-new-york-496","city":"New York","geolocation":{"type":"Point","coordinates":[-73.998842,40.745141]}},{"name":"Starbucks","categories":"starbucks-brooklyn-49","city":"Brooklyn","geolocation":{"type":"Point","coordinates":[-73.981839,40.666813]}},{"name":"Starbucks","categories":"starbucks-new-york-119","city":"New York","geolocation":{"type":"Point","coordinates":[-73.986826,40.7449852]}},{"name":"Starbucks","categories":"starbucks-new-york-114","city":"New York","geolocation":{"type":"Point","coordinates":[-73.990868,40.74525]}},{"name":"Starbucks","categories":"starbucks-new-york-149","city":"New York","geolocation":{"type":"Point","coordinates":[-73.976832,40.743799]}},{"name":"Starbucks","categories":"starbucks-brooklyn-56","city":"Brooklyn","geolocation":{"type":"Point","coordinates":[-73.941105,40.700053]}},{"name":"Starbucks","categories":"starbucks-new-york-536","city":"New York","geolocation":{"type":"Point","coordinates":[-73.982142,40.745394]}},{"name":"Starbucks","categories":"starbucks-new-york-590","city":"New York","geolocation":{"type":"Point","coordinates":[-73.97397,40.74372]}},{"name":"Starbucks","categories":"starbucks-hoboken","city":"Hoboken","geolocation":{"type":"Point","coordinates":[-74.030173,40.736668]}},{"name":"Starbucks","categories":"starbucks-jersey-city-6","city":"Jersey City","geolocation":{"type":"Point","coordinates":[-74.035687,40.732354]}},{"name":"Starbucks","categories":"starbucks-new-york-232","city":"New York","geolocation":{"type":"Point","coordinates":[-73.993335,40.746926]}},{"name":"Starbucks","categories":"starbucks-new-york-306","city":"New York","geolocation":{"type":"Point","coordinates":[-73.980869,40.746639]}},{"name":"Starbucks","categories":"starbucks-new-york-391","city":"New York","geolocation":{"type":"Point","coordinates":[-73.9957199,40.7478294]}},{"name":"Starbucks","categories":"starbucks-new-york-123","city":"New York","geolocation":{"type":"Point","coordinates":[-73.989285,40.748071]}},{"name":"Starbucks","categories":"starbucks-new-york-335","city":"New York","geolocation":{"type":"Point","coordinates":[-73.99236373,40.749006]}},{"name":"Starbucks","categories":"starbucks-new-york-535","city":"New York","geolocation":{"type":"Point","coordinates":[-73.98511,40.7484799]}},{"name":"Starbucks","categories":"starbucks-new-york-459","city":"New York","geolocation":{"type":"Point","coordinates":[-73.985102,40.748477]}},{"name":"Starbucks","categories":"starbucks-new-york-451","city":"New York","geolocation":{"type":"Point","coordinates":[-73.990603,40.749181]}},{"name":"Starbucks","categories":"starbucks-new-york-250","city":"New York","geolocation":{"type":"Point","coordinates":[-73.989512,40.7492698674]}},{"name":"Starbucks","categories":"starbucks-brooklyn-64","city":"Brooklyn","geolocation":{"type":"Point","coordinates":[-73.95766,40.671101]}},{"name":"Starbucks","categories":"starbucks-hoboken-3","city":"Hoboken","geolocation":{"type":"Point","coordinates":[-74.030146,40.740595]}},{"name":"Starbucks","categories":"starbucks-new-york-322","city":"New York","geolocation":{"type":"Point","coordinates":[-73.983764,40.74909]}},{"name":"Starbucks","categories":"starbucks-new-york-447","city":"New York","geolocation":{"type":"Point","coordinates":[-73.982242,40.749023]}},{"name":"Starbucks","categories":"starbucks-new-york-573","city":"New York","geolocation":{"type":"Point","coordinates":[-73.992993,40.75034]}},{"name":"Starbucks","categories":"starbucks-new-york-543","city":"New York","geolocation":{"type":"Point","coordinates":[-73.988879,40.750452]}},{"name":"Starbucks","categories":"starbucks-new-york-464","city":"New York","geolocation":{"type":"Point","coordinates":[-74.004019,40.750231]}},{"name":"Starbucks","categories":"starbucks-new-york-325","city":"New York","geolocation":{"type":"Point","coordinates":[-73.988604,40.750726]}},{"name":"Starbucks","categories":"starbucks-new-york-337","city":"New York","geolocation":{"type":"Point","coordinates":[-73.990911,40.751277]}},{"name":"Starbucks","categories":"starbucks-new-york-443","city":"New York","geolocation":{"type":"Point","coordinates":[-73.987119,40.751034]}},{"name":"Starbucks","categories":"starbucks-new-york-478","city":"New York","geolocation":{"type":"Point","coordinates":[-73.992508,40.751466]}},{"name":"Starbucks","categories":"starbucks-new-york-551","city":"New York","geolocation":{"type":"Point","coordinates":[-73.992591,40.751484]}},{"name":"Starbucks","categories":"starbucks-new-york-503","city":"New York","geolocation":{"type":"Point","coordinates":[-73.975172,40.749283]}},{"name":"Starbucks","categories":"starbucks-new-york-530","city":"New York","geolocation":{"type":"Point","coordinates":[-73.992663,40.751529]}},{"name":"Starbucks","categories":"starbucks-new-york-241","city":"New York","geolocation":{"type":"Point","coordinates":[-73.979189,40.750531]}},{"name":"Starbucks","categories":"starbucks-new-york-220","city":"New York","geolocation":{"type":"Point","coordinates":[-73.990237,40.751803]}},{"name":"Starbucks","categories":"starbucks-new-york-218","city":"New York","geolocation":{"type":"Point","coordinates":[-73.9770422,40.750319]}},{"name":"Starbucks","categories":"starbucks-new-york-586","city":"New York","geolocation":{"type":"Point","coordinates":[-73.995162,40.752602]}},{"name":"Starbucks","categories":"starbucks-new-york-144","city":"New York","geolocation":{"type":"Point","coordinates":[-73.992859,40.752687]}},{"name":"Starbucks","categories":"starbucks-new-york-444","city":"New York","geolocation":{"type":"Point","coordinates":[-73.972675,40.749825]}},{"name":"Starbucks","categories":"starbucks-new-york-441","city":"New York","geolocation":{"type":"Point","coordinates":[-73.975288,40.750938]}},{"name":"Starbucks","categories":"starbucks-new-york-474","city":"New York","geolocation":{"type":"Point","coordinates":[-73.981235,40.752148]}},{"name":"Starbucks","categories":"starbucks-new-york-350","city":"New York","geolocation":{"type":"Point","coordinates":[-73.9776389,40.751715]}},{"name":"Starbucks","categories":"starbucks-new-york-469","city":"New York","geolocation":{"type":"Point","coordinates":[-73.985083,40.753126]}},{"name":"Starbucks","categories":"starbucks-new-york-540","city":"New York","geolocation":{"type":"Point","coordinates":[-73.999435,40.753605]}},{"name":"Starbucks","categories":"starbucks-new-york-532","city":"New York","geolocation":{"type":"Point","coordinates":[-73.988402,40.753668]}},{"name":"Starbucks","categories":"starbucks-new-york-373","city":"New York","geolocation":{"type":"Point","coordinates":[-73.973617,40.751558]}},{"name":"Starbucks","categories":"starbucks-new-york-384","city":"New York","geolocation":{"type":"Point","coordinates":[-73.975265,40.752254]}},{"name":"Starbucks","categories":"starbucks-new-york-105","city":"New York","geolocation":{"type":"Point","coordinates":[-73.979798,40.753204]}},{"name":"Starbucks","categories":"starbucks-new-york-516","city":"New York","geolocation":{"type":"Point","coordinates":[-73.987257,40.754361]}},{"name":"Starbucks","categories":"starbucks-new-york-158","city":"New York","geolocation":{"type":"Point","coordinates":[-73.977606,40.75327]}},{"name":"Starbucks","categories":"starbucks-new-york-187","city":"New York","geolocation":{"type":"Point","coordinates":[-73.975142,40.75297]}},{"name":"Starbucks","categories":"starbucks-new-york-526","city":"New York","geolocation":{"type":"Point","coordinates":[-73.973885,40.752841]}},{"name":"Starbucks","categories":"starbucks-new-york-194","city":"New York","geolocation":{"type":"Point","coordinates":[-73.978693,40.753901]}},{"name":"Starbucks","categories":"starbucks-new-york-204","city":"New York","geolocation":{"type":"Point","coordinates":[-73.990935,40.755344]}},{"name":"Starbucks","categories":"starbucks-new-york-170","city":"New York","geolocation":{"type":"Point","coordinates":[-73.9833127,40.7546629]}},{"name":"Starbucks","categories":"starbucks-new-york-178","city":"New York","geolocation":{"type":"Point","coordinates":[-73.983824,40.754903]}},{"name":"Starbucks","categories":"starbucks-new-york-581","city":"New York","geolocation":{"type":"Point","coordinates":[-73.9837127234,40.7549919055]}},{"name":"Starbucks","categories":"starbucks-new-york-239","city":"New York","geolocation":{"type":"Point","coordinates":[-73.97636,40.754222]}},{"name":"Starbucks","categories":"starbucks-new-york-546","city":"New York","geolocation":{"type":"Point","coordinates":[-73.984106,40.75559]}},{"name":"Starbucks","categories":"starbucks-new-york-423","city":"New York","geolocation":{"type":"Point","coordinates":[-73.980208,40.755599]}},{"name":"Starbucks","categories":"starbucks-hoboken-2","city":"Hoboken","geolocation":{"type":"Point","coordinates":[-74.025387,40.751205]}},{"name":"Starbucks","categories":"starbucks-new-york-361","city":"New York","geolocation":{"type":"Point","coordinates":[-73.991702,40.756921]}},{"name":"Starbucks","categories":"starbucks-new-york-570","city":"New York","geolocation":{"type":"Point","coordinates":[-74.001753,40.756665]}},{"name":"Starbucks","categories":"starbucks-new-york-124","city":"New York","geolocation":{"type":"Point","coordinates":[-73.985893,40.756694]}},{"name":"Starbucks","categories":"starbucks-new-york-155","city":"New York","geolocation":{"type":"Point","coordinates":[-73.971732,40.75417]}},{"name":"Starbucks","categories":"starbucks-new-york-471","city":"New York","geolocation":{"type":"Point","coordinates":[-73.989094,40.757119]}},{"name":"Starbucks","categories":"starbucks-new-york-505","city":"New York","geolocation":{"type":"Point","coordinates":[-73.973263,40.754994]}},{"name":"Starbucks","categories":"starbucks-new-york-563","city":"New York","geolocation":{"type":"Point","coordinates":[-73.9783,40.756425]}},{"name":"Starbucks","categories":"starbucks-new-york-519","city":"New York","geolocation":{"type":"Point","coordinates":[-73.981163,40.757079]}},{"name":"Starbucks","categories":"starbucks-new-york-253","city":"New York","geolocation":{"type":"Point","coordinates":[-73.992153,40.758048]}},{"name":"Starbucks","categories":"starbucks-new-york-162","city":"New York","geolocation":{"type":"Point","coordinates":[-73.989036,40.758001]}},{"name":"Starbucks","categories":"starbucks-new-york-539","city":"New York","geolocation":{"type":"Point","coordinates":[-73.98508,40.757662]}},{"name":"Starbucks","categories":"starbucks-new-york-360","city":"New York","geolocation":{"type":"Point","coordinates":[-74.002465,40.757815]}},{"name":"Starbucks","categories":"starbucks-new-york-367","city":"New York","geolocation":{"type":"Point","coordinates":[-73.968649,40.7550518]}},{"name":"Starbucks","categories":"starbucks-new-york-534","city":"New York","geolocation":{"type":"Point","coordinates":[-73.975064,40.756642]}},{"name":"Starbucks","categories":"starbucks-new-york-557","city":"New York","geolocation":{"type":"Point","coordinates":[-73.98245,40.758117]}},{"name":"Starbucks","categories":"starbucks-new-york-400","city":"New York","geolocation":{"type":"Point","coordinates":[-73.975969,40.757077]}},{"name":"Starbucks","categories":"starbucks-new-york-430","city":"New York","geolocation":{"type":"Point","coordinates":[-73.986607,40.758532]}},{"name":"Starbucks","categories":"starbucks-new-york-331","city":"New York","geolocation":{"type":"Point","coordinates":[-73.992474,40.758994]}},{"name":"Starbucks","categories":"starbucks-new-york-504","city":"New York","geolocation":{"type":"Point","coordinates":[-73.979604,40.757794]}},{"name":"Starbucks","categories":"starbucks-new-york-566","city":"New York","geolocation":{"type":"Point","coordinates":[-73.97283,40.756836]}},{"name":"Starbucks Reserve","categories":"starbucks-reserve-new-york-5","city":"New York","geolocation":{"type":"Point","coordinates":[-73.985222,40.759636]}},{"name":"Starbucks","categories":"starbucks-new-york-273","city":"New York","geolocation":{"type":"Point","coordinates":[-73.978954,40.758856]}},{"name":"Starbucks","categories":"starbucks-new-york-389","city":"New York","geolocation":{"type":"Point","coordinates":[-73.978956,40.758859]}},{"name":"Starbucks","categories":"starbucks-new-york-372","city":"New York","geolocation":{"type":"Point","coordinates":[-73.970897,40.7576674897]}},{"name":"Starbucks","categories":"starbucks-new-york-342","city":"New York","geolocation":{"type":"Point","coordinates":[-73.987177,40.7604866]}},{"name":"Starbucks","categories":"starbucks-new-york-501","city":"New York","geolocation":{"type":"Point","coordinates":[-73.964801,40.756047]}},{"name":"Starbucks","categories":"starbucks-manhattan-150","city":"Manhattan","geolocation":{"type":"Point","coordinates":[-73.984359,40.760189]}},{"name":"Starbucks","categories":"starbucks-new-york-437","city":"New York","geolocation":{"type":"Point","coordinates":[-73.969128,40.75743]}},{"name":"Starbucks","categories":"starbucks-new-york-494","city":"New York","geolocation":{"type":"Point","coordinates":[-73.97355633,40.75875076]}},{"name":"Starbucks","categories":"starbucks-new-york-564","city":"New York","geolocation":{"type":"Point","coordinates":[-73.983782,40.760736]}},{"name":"Starbucks","categories":"starbucks-new-york-565","city":"New York","geolocation":{"type":"Point","coordinates":[-73.979084,40.760364]}},{"name":"Starbucks","categories":"starbucks-new-york-318","city":"New York","geolocation":{"type":"Point","coordinates":[-73.973613,40.759598]}},{"name":"Starbucks","categories":"starbucks-new-york-420","city":"New York","geolocation":{"type":"Point","coordinates":[-73.9784317017,40.7606086731]}},{"name":"Starbucks","categories":"starbucks-new-york-531","city":"New York","geolocation":{"type":"Point","coordinates":[-73.978598,40.760587]}},{"name":"Starbucks","categories":"starbucks-new-york-568","city":"New York","geolocation":{"type":"Point","coordinates":[-73.976134,40.760348]}},{"name":"Starbucks","categories":"starbucks-new-york-148","city":"New York","geolocation":{"type":"Point","coordinates":[-73.986602,40.761934]}},{"name":"Starbucks","categories":"starbucks-new-york-188","city":"New York","geolocation":{"type":"Point","coordinates":[-73.987535,40.762192]}},{"name":"Starbucks","categories":"starbucks-new-york-470","city":"New York","geolocation":{"type":"Point","coordinates":[-73.970033,40.759481]}},{"name":"Starbucks","categories":"starbucks-new-york-555","city":"New York","geolocation":{"type":"Point","coordinates":[-73.981886,40.761967]}},{"name":"Starbucks","categories":"starbucks-new-york-228","city":"New York","geolocation":{"type":"Point","coordinates":[-73.979674,40.761789]}},{"name":"Starbucks","categories":"starbucks-long-island-city-3","city":"Long Island City","geolocation":{"type":"Point","coordinates":[-73.941846,40.747142]}},{"name":"Starbucks","categories":"starbucks-ny","city":"NY","geolocation":{"type":"Point","coordinates":[-73.9836332,40.762426]}},{"name":"Starbucks","categories":"starbucks-new-york-548","city":"New York","geolocation":{"type":"Point","coordinates":[-73.978694,40.76188]}},{"name":"Starbucks","categories":"starbucks-manhattan-84","city":"Manhattan","geolocation":{"type":"Point","coordinates":[-73.979713,40.762443]}},{"name":"Starbucks","categories":"starbucks-new-york-310","city":"New York","geolocation":{"type":"Point","coordinates":[-73.985313,40.763714]}},{"name":"Starbucks","categories":"starbucks-jersey-city-9","city":"Jersey City","geolocation":{"type":"Point","coordinates":[-74.063059,40.73246]}},{"name":"Starbucks","categories":"starbucks-new-york-448","city":"New York","geolocation":{"type":"Point","coordinates":[-73.982344,40.763735]}},{"name":"Starbucks","categories":"starbucks-new-york-556","city":"New York","geolocation":{"type":"Point","coordinates":[-73.969035,40.761316]}},{"name":"Starbucks","categories":"starbucks-new-york-139","city":"New York","geolocation":{"type":"Point","coordinates":[-73.974002,40.762725]}},{"name":"Starbucks","categories":"starbucks-new-york-396","city":"New York","geolocation":{"type":"Point","coordinates":[-73.96788,40.761399]}},{"name":"Starbucks","categories":"starbucks-new-york-418","city":"New York","geolocation":{"type":"Point","coordinates":[-73.9678380539,40.7614271854]}},{"name":"Starbucks","categories":"starbucks-new-york-240","city":"New York","geolocation":{"type":"Point","coordinates":[-73.978884,40.76399]}},{"name":"Starbucks","categories":"starbucks-new-york-138","city":"New York","geolocation":{"type":"Point","coordinates":[-73.977353,40.763632]}},{"name":"Starbucks","categories":"starbucks-new-york-176","city":"New York","geolocation":{"type":"Point","coordinates":[-73.981069,40.764412]}},{"name":"Starbucks","categories":"starbucks-new-york-224","city":"New York","geolocation":{"type":"Point","coordinates":[-73.97247,40.7631]}},{"name":"Starbucks","categories":"starbucks-new-york-329","city":"New York","geolocation":{"type":"Point","coordinates":[-73.961123,40.760397]}},{"name":"Starbucks","categories":"starbucks-long-island-city-4","city":"Long Island City","geolocation":{"type":"Point","coordinates":[-73.9401732223,40.749898195]}},{"name":"Starbucks","categories":"starbucks-new-york-559","city":"New York","geolocation":{"type":"Point","coordinates":[-73.979108,40.764926]}},{"name":"Starbucks","categories":"starbucks-new-york-561","city":"New York","geolocation":{"type":"Point","coordinates":[-73.977102,40.764784]}},{"name":"Starbucks","categories":"starbucks-new-york-193","city":"New York","geolocation":{"type":"Point","coordinates":[-73.965719,40.762406]}},{"name":"Starbucks","categories":"starbucks-new-york-552","city":"New York","geolocation":{"type":"Point","coordinates":[-73.9829,40.76635]}},{"name":"Starbucks","categories":"starbucks-manhattan-307","city":"Manhattan","geolocation":{"type":"Point","coordinates":[-73.9828834,40.7666797]}},{"name":"Starbucks","categories":"starbucks-new-york-500","city":"New York","geolocation":{"type":"Point","coordinates":[-73.98408,40.767005]}},{"name":"Starbucks","categories":"starbucks-new-york-266","city":"New York","geolocation":{"type":"Point","coordinates":[-73.952917,40.759305]}},{"name":"Starbucks","categories":"starbucks-new-york-585","city":"New York","geolocation":{"type":"Point","coordinates":[-73.9824502543,40.7673085652]}},{"name":"Starbucks","categories":"starbucks-new-york-145","city":"New York","geolocation":{"type":"Point","coordinates":[-73.98287,40.76749]}},{"name":"Starbucks","categories":"starbucks-new-york-161","city":"New York","geolocation":{"type":"Point","coordinates":[-73.983013,40.767544]}},{"name":"Starbucks","categories":"starbucks-new-york-268","city":"New York","geolocation":{"type":"Point","coordinates":[-73.966583,40.764686]}},{"name":"Starbucks","categories":"starbucks-bushwick","city":"Bushwick","geolocation":{"type":"Point","coordinates":[-73.9117750525,40.6996611976]}},{"name":"Starbucks","categories":"starbucks-new-york-481","city":"New York","geolocation":{"type":"Point","coordinates":[-73.96442,40.764151]}},{"name":"Starbucks","categories":"starbucks-ridgewood-3","city":"Ridgewood","geolocation":{"type":"Point","coordinates":[-73.911241,40.699767]}},{"name":"Starbucks","categories":"starbucks-new-york-433","city":"New York","geolocation":{"type":"Point","coordinates":[-73.988233,40.76915]}},{"name":"Starbucks","categories":"starbucks-new-york-549","city":"New York","geolocation":{"type":"Point","coordinates":[-73.982111,40.768604]}},{"name":"Starbucks","categories":"starbucks-new-york-171","city":"New York","geolocation":{"type":"Point","coordinates":[-73.982342,40.76913]}},{"name":"Starbucks","categories":"starbucks-new-york-314","city":"New York","geolocation":{"type":"Point","coordinates":[-73.984881,40.769397]}},{"name":"Starbucks","categories":"starbucks-new-york-352","city":"New York","geolocation":{"type":"Point","coordinates":[-73.963622,40.765915]}},{"name":"Starbucks","categories":"starbucks-new-york-315","city":"New York","geolocation":{"type":"Point","coordinates":[-73.982462,40.771316]}},{"name":"Starbucks","categories":"starbucks-new-york-347","city":"New York","geolocation":{"type":"Point","coordinates":[-73.957523,40.766042]}},{"name":"Starbucks","categories":"starbucks-new-york-529","city":"New York","geolocation":{"type":"Point","coordinates":[-73.98986,40.772766]}},{"name":"Starbucks","categories":"starbucks-new-york-499","city":"New York","geolocation":{"type":"Point","coordinates":[-73.979878,40.773019]}},{"name":"Starbucks","categories":"starbucks-sunnyside","city":"Sunnyside","geolocation":{"type":"Point","coordinates":[-73.9182384,40.7434146]}},{"name":"Starbucks","categories":"starbucks-new-york-480","city":"New York","geolocation":{"type":"Point","coordinates":[-73.984146,40.774855]}},{"name":"Starbucks","categories":"starbucks-new-york-351","city":"New York","geolocation":{"type":"Point","coordinates":[-73.954675,40.769931]}},{"name":"Starbucks","categories":"starbucks-new-york-354","city":"New York","geolocation":{"type":"Point","coordinates":[-73.956935,40.771087]}}]