[{"name":"Jajaja","categories":"jajaja-new-york","city":"New York","geolocation":{"type":"Point","coordinates":[-73.9904247969,40.7141530317]}},{"name":"Petisco Vegano","categories":"petisco-vegano-new-york","city":"New York","geolocation":{"type":"Point","coordinates":[-73.988805,40.713928]}},{"name":"Spicy Moon","categories":"spicy-moon-new-york","city":"New York","geolocation":{"type":"Point","coordinates":[-73.98722,40.72674]}},{"name":"XYST","categories":"xyst-new-york-2","city":"New York","geolocation":{"type":"Point","coordinates":[-73.99444,40.73874]}},{"name":"Jajaja","categories":"jajaja-new-york-4","city":"New York","geolocation":{"type":"Point","coordinates":[-74.00455,40.72979]}},{"name":"by CHLOE","categories":"by-chloe-new-york-32","city":"New York","geolocation":{"type":"Point","coordinates":[-74.001021,40.729219]}},{"name":"Urban Vegan Kitchen","categories":"urban-vegan-kitchen-new-york","city":"New York","geolocation":{"type":"Point","coordinates":[-74.00368,40.7302]}},{"name":"Divya's Kitchen","categories":"divyas-kitchen-new-york","city":"New York","geolocation":{"type":"Point","coordinates":[-73.98849,40.72378]}},{"name":"Blossom","categories":"blossom-new-york-3","city":"New York","geolocation":{"type":"Point","coordinates":[-74.002365,40.745513]}},{"name":"Ladybird","categories":"ladybird-new-york","city":"New York","geolocation":{"type":"Point","coordinates":[-73.9847712789,40.7267693111]}},{"name":"Dirt Candy","categories":"dirt-candy-new-york-2","city":"New York","geolocation":{"type":"Point","coordinates":[-73.9907183,40.7179075]}},{"name":"Rip\u2019s Malt Shop","categories":"rip-s-malt-shop-new-york","city":"New York","geolocation":{"type":"Point","coordinates":[-74.000412,40.735666]}},{"name":"Le Botaniste","categories":"le-botaniste-new-york-4","city":"New York","geolocation":{"type":"Point","coordinates":[-74.0002028,40.7204278]}},{"name":"Avant Garden","categories":"avant-garden-new-york","city":"New York","geolocation":{"type":"Point","coordinates":[-73.98402,40.7261499]}},{"name":"GLUR Thai","categories":"glur-thai-new-york","city":"New York","geolocation":{"type":"Point","coordinates":[-73.99665,40.74121]}},{"name":"Red Bamboo","categories":"red-bamboo-new-york","city":"New York","geolocation":{"type":"Point","coordinates":[-74.0003546456,40.7313183708]}},{"name":"Honeybee\u2019s","categories":"honeybee-s-new-york","city":"New York","geolocation":{"type":"Point","coordinates":[-73.98403,40.72563]}},{"name":"Vegan Love","categories":"vegan-love-new-york-2","city":"New York","geolocation":{"type":"Point","coordinates":[-73.9832536018,40.7285173652]}},{"name":"Franchia Vegan Cafe","categories":"franchia-vegan-cafe-new-york","city":"New York","geolocation":{"type":"Point","coordinates":[-73.9812423409,40.7474712051]}},{"name":"Peacefood Cafe Downtown","categories":"peacefood-cafe-downtown-new-york","city":"New York","geolocation":{"type":"Point","coordinates":[-73.9929751334,40.7332670925]}},{"name":"Orchard Grocer","categories":"orchard-grocer-new-york","city":"New York","geolocation":{"type":"Point","coordinates":[-73.990187,40.717744]}},{"name":"Original Buddha Bodai Kosher Vegetarian Restaurant","categories":"original-buddha-bodai-kosher-vegetarian-restaurant-new-york-3","city":"New York","geolocation":{"type":"Point","coordinates":[-73.9989484,40.7138543]}},{"name":"Bar Verde","categories":"bar-verde-new-york","city":"New York","geolocation":{"type":"Point","coordinates":[-73.9897361398,40.7260849061]}},{"name":"Copper Branch","categories":"copper-branch-new-york-2","city":"New York","geolocation":{"type":"Point","coordinates":[-74.00134,40.72935]}},{"name":"Sacred Chow","categories":"sacred-chow-new-york","city":"New York","geolocation":{"type":"Point","coordinates":[-73.99944,40.72959]}},{"name":"Double Zero","categories":"double-zero-new-york","city":"New York","geolocation":{"type":"Point","coordinates":[-73.9896645,40.7261288]}},{"name":"Nix","categories":"nix-new-york","city":"New York","geolocation":{"type":"Point","coordinates":[-73.99359,40.73323]}},{"name":"The Cinnamon Snail","categories":"the-cinnamon-snail-new-york-7","city":"New York","geolocation":{"type":"Point","coordinates":[-73.9919686739,40.750320537]}},{"name":"Bali Kitchen","categories":"bali-kitchen-new-york-2","city":"New York","geolocation":{"type":"Point","coordinates":[-73.987617,40.725371]}},{"name":"Artistic Pizza","categories":"artistic-pizza-new-york","city":"New York","geolocation":{"type":"Point","coordinates":[-74.00044,40.73069]}},{"name":"Superiority Burger","categories":"superiority-burger-new-york","city":"New York","geolocation":{"type":"Point","coordinates":[-73.98355,40.72739]}},{"name":"by CHLOE","categories":"by-chloe-new-york-31","city":"New York","geolocation":{"type":"Point","coordinates":[-73.99292,40.74197]}},{"name":"Delice & Sarrasin","categories":"delice-and-sarrasin-new-york","city":"New York","geolocation":{"type":"Point","coordinates":[-74.00065,40.73377]}},{"name":"Marty's V Burger","categories":"martys-v-burger-new-york","city":"New York","geolocation":{"type":"Point","coordinates":[-73.9825710043,40.7418634775]}},{"name":"Noodlelove","categories":"noodlelove-new-york-2","city":"New York","geolocation":{"type":"Point","coordinates":[-73.9956235,40.7209]}},{"name":"V 4 Vegan","categories":"v-4-vegan-new-york-5","city":"New York","geolocation":{"type":"Point","coordinates":[-73.98727,40.72881]}},{"name":"Vegan Food Court","categories":"vegan-food-court-new-york","city":"New York","geolocation":{"type":"Point","coordinates":[-73.989209,40.729113]}},{"name":"The Cinnamon Snail","categories":"the-cinnamon-snail-new-york-2","city":"New York","geolocation":{"type":"Point","coordinates":[-73.992215,40.75007]}},{"name":"Bodhi Kosher Vegetarian Restaurant","categories":"bodhi-kosher-vegetarian-restaurant-new-york","city":"New York","geolocation":{"type":"Point","coordinates":[-73.99931,40.71641]}},{"name":"Jisu Vegetarian","categories":"jisu-vegetarian-new-york","city":"New York","geolocation":{"type":"Point","coordinates":[-73.995209,40.716084]}},{"name":"Mother of Pearl","categories":"mother-of-pearl-new-york","city":"New York","geolocation":{"type":"Point","coordinates":[-73.98412,40.72566]}},{"name":"A.T.M. Vegan Deli","categories":"a-t-m-vegan-deli-new-york","city":"New York","geolocation":{"type":"Point","coordinates":[-73.95825,40.7217]}},{"name":"Cocoron","categories":"cocoron-new-york-3","city":"New York","geolocation":{"type":"Point","coordinates":[-73.99305,40.72031]}},{"name":"Plant Food + Wine","categories":"plant-food-wine-new-york","city":"New York","geolocation":{"type":"Point","coordinates":[-73.989751,40.7261989]}},{"name":"ABCV","categories":"abcv-new-york-2","city":"New York","geolocation":{"type":"Point","coordinates":[-73.98887401,40.7379039813]}},{"name":"Kajitsu","categories":"kajitsu-new-york-3","city":"New York","geolocation":{"type":"Point","coordinates":[-73.9777215,40.7498614]}},{"name":"May Kaidee East Broadway","categories":"may-kaidee-east-broadway-new-york","city":"New York","geolocation":{"type":"Point","coordinates":[-73.9874649793,40.7140637]}},{"name":"Terri","categories":"terri-new-york","city":"New York","geolocation":{"type":"Point","coordinates":[-73.9923,40.74252]}},{"name":"Beyond Sushi","categories":"beyond-sushi-new-york-9","city":"New York","geolocation":{"type":"Point","coordinates":[-74.00766,40.706433]}},{"name":"Dun-Well Doughnuts","categories":"dun-well-doughnuts-new-york-3","city":"New York","geolocation":{"type":"Point","coordinates":[-73.9846205124,40.7271946946]}},{"name":"Areppas Soho","categories":"areppas-soho-new-york","city":"New York","geolocation":{"type":"Point","coordinates":[-73.99713,40.72185]}},{"name":"Beyond Sushi","categories":"beyond-sushi-new-york-7","city":"New York","geolocation":{"type":"Point","coordinates":[-73.98588,40.7329]}},{"name":"Confectionery","categories":"confectionery-new-york","city":"New York","geolocation":{"type":"Point","coordinates":[-73.98305,40.72732]}},{"name":"by CHLOE","categories":"by-chloe-new-york-30","city":"New York","geolocation":{"type":"Point","coordinates":[-74.00418,40.70657]}},{"name":"Quantum Leap","categories":"quantum-leap-new-york","city":"New York","geolocation":{"type":"Point","coordinates":[-73.99874,40.72916]}},{"name":"Hangawi","categories":"hangawi-new-york","city":"New York","geolocation":{"type":"Point","coordinates":[-73.984662,40.746737]}},{"name":"VLife","categories":"vlife-new-york-2","city":"New York","geolocation":{"type":"Point","coordinates":[-73.9929176564,40.7481116799]}},{"name":"Body & Soul Bakeshop","categories":"body-and-soul-bakeshop-new-york","city":"New York","geolocation":{"type":"Point","coordinates":[-73.99099,40.73644]}},{"name":"westbourne","categories":"westbourne-new-york","city":"New York","geolocation":{"type":"Point","coordinates":[-74.00193,40.72687]}},{"name":"by CHLOE","categories":"by-chloe-new-york-29","city":"New York","geolocation":{"type":"Point","coordinates":[-73.99711,40.72273]}},{"name":"Jell & Chill","categories":"jell-and-chill-new-york","city":"New York","geolocation":{"type":"Point","coordinates":[-73.9846681058,40.726435034]}},{"name":"Spring Cafe","categories":"spring-cafe-new-york","city":"New York","geolocation":{"type":"Point","coordinates":[-74.00021,40.71792]}},{"name":"Goemon","categories":"goemon-new-york","city":"New York","geolocation":{"type":"Point","coordinates":[-73.99509,40.72083]}},{"name":"Mulberry & Vine","categories":"mulberry-and-vine-new-york","city":"New York","geolocation":{"type":"Point","coordinates":[-74.0101342,40.7150751]}},{"name":"Beyond Sushi","categories":"beyond-sushi-new-york-10","city":"New York","geolocation":{"type":"Point","coordinates":[-73.99629,40.72216]}},{"name":"The Little Beet","categories":"the-little-beet-new-york-6","city":"New York","geolocation":{"type":"Point","coordinates":[-73.9887,40.74393]}},{"name":"Go Zen","categories":"go-zen-new-york-3","city":"New York","geolocation":{"type":"Point","coordinates":[-74.0005102638,40.7313398845]}},{"name":"Riverdel","categories":"riverdel-new-york","city":"New York","geolocation":{"type":"Point","coordinates":[-73.988119,40.718296]}},{"name":"Green Symphony","categories":"green-symphony-new-york-2","city":"New York","geolocation":{"type":"Point","coordinates":[-73.9968139,40.738083]}},{"name":"Skinny Buddha Organic Kitchen","categories":"skinny-buddha-organic-kitchen-new-york","city":"New York","geolocation":{"type":"Point","coordinates":[-73.98991,40.72379]}},{"name":"Mille Nonne","categories":"mille-nonne-new-york-2","city":"New York","geolocation":{"type":"Point","coordinates":[-73.9882738,40.7180351]}},{"name":"Farmacy Kitchen","categories":"farmacy-kitchen-new-york","city":"New York","geolocation":{"type":"Point","coordinates":[-73.9972921315,40.7221148939]}},{"name":"Nish Nush","categories":"nish-nush-new-york-5","city":"New York","geolocation":{"type":"Point","coordinates":[-74.007949,40.709472]}},{"name":"Cafe Bari","categories":"cafe-bari-new-york-3","city":"New York","geolocation":{"type":"Point","coordinates":[-74.00173,40.71909]}},{"name":"The Organic Grill","categories":"the-organic-grill-new-york-130","city":"New York","geolocation":{"type":"Point","coordinates":[-73.98578,40.72737]}},{"name":"Taim West Village","categories":"taim-west-village-new-york","city":"New York","geolocation":{"type":"Point","coordinates":[-74.0019588366,40.7360023763]}},{"name":"Atlas Cafe & Bakery","categories":"atlas-cafe-and-bakery-new-york-2","city":"New York","geolocation":{"type":"Point","coordinates":[-73.9894421246,40.7265019578]}},{"name":"Nish Nush","categories":"nish-nush-new-york","city":"New York","geolocation":{"type":"Point","coordinates":[-74.007695,40.715688]}},{"name":"Souen","categories":"souen-new-york-2","city":"New York","geolocation":{"type":"Point","coordinates":[-73.9873733521,40.7266693115]}},{"name":"Bombay Sandwich Co.","categories":"bombay-sandwich-co-new-york-40","city":"New York","geolocation":{"type":"Point","coordinates":[-73.9903596202,40.7450715522]}},{"name":"Ramen Ishida","categories":"ramen-ishida-new-york","city":"New York","geolocation":{"type":"Point","coordinates":[-73.98834,40.71959]}},{"name":"The Butcher's Daughter","categories":"the-butchers-daughter-new-york","city":"New York","geolocation":{"type":"Point","coordinates":[-73.9948451276,40.7207068627]}},{"name":"Hotel Tortuga","categories":"hotel-tortuga-new-york","city":"New York","geolocation":{"type":"Point","coordinates":[-73.98545,40.73239]}},{"name":"Nefista Vegan Kofteh","categories":"nefista-vegan-kofteh-new-york","city":"New York","geolocation":{"type":"Point","coordinates":[-74.000735,40.729414]}},{"name":"BoCaphe","categories":"bocaph\u00ea-new-york-3","city":"New York","geolocation":{"type":"Point","coordinates":[-73.997557,40.722046]}},{"name":"Erin McKenna's Bakery","categories":"erin-mckennas-bakery-new-york","city":"New York","geolocation":{"type":"Point","coordinates":[-73.989604,40.718132]}},{"name":"Rawsome Treats","categories":"rawsome-treats-new-york-12","city":"New York","geolocation":{"type":"Point","coordinates":[-73.9886739485,40.7208686955]}},{"name":"Zizi","categories":"zizi-new-york-3","city":"New York","geolocation":{"type":"Point","coordinates":[-74.00002,40.74293]}},{"name":"Bareburger","categories":"bareburger-new-york-30","city":"New York","geolocation":{"type":"Point","coordinates":[-73.999819,40.742943]}},{"name":"Village Natural","categories":"village-natural-new-york","city":"New York","geolocation":{"type":"Point","coordinates":[-74.000244,40.735622]}},{"name":"Areppas","categories":"areppas-new-york-3","city":"New York","geolocation":{"type":"Point","coordinates":[-73.9971453122,40.7218576658]}},{"name":"Vegetarian Dim Sum House","categories":"vegetarian-dim-sum-house-new-york","city":"New York","geolocation":{"type":"Point","coordinates":[-73.998161,40.715023]}},{"name":"Jivamuktea Caf\u00e9","categories":"jivamuktea-caf\u00e9-new-york-2","city":"New York","geolocation":{"type":"Point","coordinates":[-73.9910125948,40.7343094009]}},{"name":"Beyond Sushi","categories":"beyond-sushi-new-york-8","city":"New York","geolocation":{"type":"Point","coordinates":[-74.0066324868,40.7424675259]}},{"name":"LuAnne's Wild Ginger All-Asian Vegan","categories":"luannes-wild-ginger-all-asian-vegan-new-york","city":"New York","geolocation":{"type":"Point","coordinates":[-73.9964956,40.7204631]}},{"name":"Jack's Stir Brew Coffee","categories":"jacks-stir-brew-coffee-new-york-2","city":"New York","geolocation":{"type":"Point","coordinates":[-74.002356,40.707633]}},{"name":"Caravan of Dreams","categories":"caravan-of-dreams-new-york","city":"New York","geolocation":{"type":"Point","coordinates":[-73.9856490472,40.7261704451]}},{"name":"Cocoron:  Gluten-Free noodle Pop up","categories":"cocoron-gluten-free-noodle-pop-up-new-york","city":"New York","geolocation":{"type":"Point","coordinates":[-73.99086,40.71909]}},{"name":"Malibu Farm","categories":"malibu-farm-new-york-2","city":"New York","geolocation":{"type":"Point","coordinates":[-74.001749,40.705925]}},{"name":"Zyara NY","categories":"zyara-ny-new-york","city":"New York","geolocation":{"type":"Point","coordinates":[-73.98507,40.71964]}},{"name":"Sunshine - Hummus","categories":"sunshine-hummus-new-york-2","city":"New York","geolocation":{"type":"Point","coordinates":[-73.9934370902,40.731080654]}},{"name":"Baodega","categories":"baodega-new-york","city":"New York","geolocation":{"type":"Point","coordinates":[-73.99178,40.74014]}},{"name":"Lifethyme","categories":"lifethyme-new-york","city":"New York","geolocation":{"type":"Point","coordinates":[-73.99906,40.73378]}},{"name":"Golden Diner","categories":"golden-diner-new-york-2","city":"New York","geolocation":{"type":"Point","coordinates":[-73.994,40.71244]}},{"name":"Ananda","categories":"ananda-new-york-4","city":"New York","geolocation":{"type":"Point","coordinates":[-73.999147,40.728724]}},{"name":"YunShang Rice Noodle House","categories":"yunshang-rice-noodle-house-new-york-4","city":"New York","geolocation":{"type":"Point","coordinates":[-73.99765,40.71525]}},{"name":"OM Juice Bar","categories":"om-juice-bar-new-york","city":"New York","geolocation":{"type":"Point","coordinates":[-73.98621,40.74355]}},{"name":"The Butcher's Daughter","categories":"the-butchers-daughter-new-york-2","city":"New York","geolocation":{"type":"Point","coordinates":[-74.00606,40.73639]}},{"name":"The Wild Son","categories":"the-wild-son-new-york","city":"New York","geolocation":{"type":"Point","coordinates":[-74.00836,40.74073]}},{"name":"Mulberry & Vine","categories":"mulberry-and-vine-new-york-2","city":"New York","geolocation":{"type":"Point","coordinates":[-73.99035,40.74527]}},{"name":"Citizens of Bleecker","categories":"citizens-of-bleecker-new-york","city":"New York","geolocation":{"type":"Point","coordinates":[-73.999672,40.728603]}},{"name":"Gohan-ya","categories":"gohan-ya-new-york","city":"New York","geolocation":{"type":"Point","coordinates":[-73.9917685837,40.7150115073]}},{"name":"Magic Mix Juicery","categories":"magic-mix-juicery-new-york","city":"New York","geolocation":{"type":"Point","coordinates":[-74.006735,40.70961]}},{"name":"Night Music","categories":"night-music-new-york","city":"New York","geolocation":{"type":"Point","coordinates":[-73.98454,40.72658]}},{"name":"Zooba","categories":"zooba-new-york","city":"New York","geolocation":{"type":"Point","coordinates":[-73.9973096922,40.7212932028]}},{"name":"Holy Cow","categories":"holy-cow-new-york-4","city":"New York","geolocation":{"type":"Point","coordinates":[-73.98792,40.74588]}},{"name":"NAYA","categories":"naya-new-york-20","city":"New York","geolocation":{"type":"Point","coordinates":[-74.0114968,40.7023139]}},{"name":"Square Pizza","categories":"square-pizza-new-york-2","city":"New York","geolocation":{"type":"Point","coordinates":[-73.98468,40.72008]}},{"name":"Hole in the Wall","categories":"hole-in-the-wall-new-york-2","city":"New York","geolocation":{"type":"Point","coordinates":[-74.00563,40.70837]}},{"name":"Ribalta Mo'","categories":"ribalta-mo-new-york-2","city":"New York","geolocation":{"type":"Point","coordinates":[-73.9918599852,40.7503255563]}},{"name":"Chama Mama","categories":"chama-mama-new-york","city":"New York","geolocation":{"type":"Point","coordinates":[-73.99892,40.7384]}},{"name":"Mint Kitchen","categories":"mint-kitchen-new-york-5","city":"New York","geolocation":{"type":"Point","coordinates":[-73.99301,40.73345]}},{"name":"M Noodle Shop","categories":"m-noodle-shop-new-york","city":"New York","geolocation":{"type":"Point","coordinates":[-73.988659,40.720348]}},{"name":"Little Beet Table","categories":"little-beet-table-new-york","city":"New York","geolocation":{"type":"Point","coordinates":[-73.98545,40.74116]}},{"name":"Vish Hummus & Happiness","categories":"vish-hummus-and-happiness-new-york-3","city":"New York","geolocation":{"type":"Point","coordinates":[-73.96197,40.71684]}},{"name":"Three Times","categories":"three-times-new-york-2","city":"New York","geolocation":{"type":"Point","coordinates":[-73.99104,40.73285]}},{"name":"NY Dosas","categories":"ny-dosas-new-york","city":"New York","geolocation":{"type":"Point","coordinates":[-73.9986377977,40.730838608]}},{"name":"Ahimsa Garden","categories":"ahimsa-garden-new-york-4","city":"New York","geolocation":{"type":"Point","coordinates":[-73.98319,40.72849]}},{"name":"Sunflower Cafe","categories":"sunflower-cafe-new-york-5","city":"New York","geolocation":{"type":"Point","coordinates":[-73.98219,40.7399]}},{"name":"TONCHIN NEW YORK","categories":"tonchin-new-york-new-york","city":"New York","geolocation":{"type":"Point","coordinates":[-73.9844951,40.7502727]}},{"name":"Green Gorilla Kitchen","categories":"green-gorilla-kitchen-new-york-2","city":"New York","geolocation":{"type":"Point","coordinates":[-73.9912,40.73587]}},{"name":"Sabai Thai Restaurant","categories":"sabai-thai-restaurant-new-york-3","city":"New York","geolocation":{"type":"Point","coordinates":[-73.98365,40.74422]}},{"name":"Dill & Parsley","categories":"dill-and-parsley-new-york-8","city":"New York","geolocation":{"type":"Point","coordinates":[-74.006831,40.706162]}},{"name":"Lekka Burger","categories":"lekka-burger-new-york","city":"New York","geolocation":{"type":"Point","coordinates":[-74.0105318,40.715151]}},{"name":"POST","categories":"post-new-york-2","city":"New York","geolocation":{"type":"Point","coordinates":[-73.98302,40.72298]}},{"name":"Flowers Cafe","categories":"flowers-cafe-new-york-3","city":"New York","geolocation":{"type":"Point","coordinates":[-73.989697,40.716256]}},{"name":"Bive","categories":"bive-new-york","city":"New York","geolocation":{"type":"Point","coordinates":[-73.99018,40.71844]}},{"name":"Good Thanks NYC","categories":"good-thanks-nyc-new-york","city":"New York","geolocation":{"type":"Point","coordinates":[-73.98952,40.71972]}},{"name":"The Dumpling Shop","categories":"the-dumpling-shop-new-york-2","city":"New York","geolocation":{"type":"Point","coordinates":[-73.9877445929,40.728198064]}},{"name":"Three Jewels Cafe","categories":"three-jewels-cafe-new-york-2","city":"New York","geolocation":{"type":"Point","coordinates":[-73.99119,40.72624]}},{"name":"Tonii\u2019s Fresh Rice Noodle","categories":"tonii-s-fresh-rice-noodle-new-york","city":"New York","geolocation":{"type":"Point","coordinates":[-73.99899,40.71572]}},{"name":"Osteria 57","categories":"osteria-57-new-york","city":"New York","geolocation":{"type":"Point","coordinates":[-73.99786,40.73467]}},{"name":"Tofu Tofu","categories":"tofu-tofu-new-york-5","city":"New York","geolocation":{"type":"Point","coordinates":[-73.9954301342,40.7176299521]}},{"name":"Westville West","categories":"westville-west-new-york","city":"New York","geolocation":{"type":"Point","coordinates":[-74.0041863,40.7340046]}},{"name":"Awash Ethiopian Restaurant","categories":"awash-ethiopian-restaurant-new-york-3","city":"New York","geolocation":{"type":"Point","coordinates":[-73.98682,40.72658]}},{"name":"Spring Natural","categories":"spring-natural-new-york-2","city":"New York","geolocation":{"type":"Point","coordinates":[-73.9969895035,40.7212623954]}},{"name":"Sm\u00f8r","categories":"sm\u00f8r-new-york","city":"New York","geolocation":{"type":"Point","coordinates":[-73.98153,40.72927]}},{"name":"CHALAIT","categories":"chalait-new-york-9","city":"New York","geolocation":{"type":"Point","coordinates":[-74.00788,40.7287]}},{"name":"Yonah Schimmel's Knish Bakery","categories":"yonah-schimmels-knish-bakery-new-york","city":"New York","geolocation":{"type":"Point","coordinates":[-73.99015,40.7231]}},{"name":"King David Tacos","categories":"king-david-tacos-new-york-2","city":"New York","geolocation":{"type":"Point","coordinates":[-74.01043,40.703458]}},{"name":"Dig Inn","categories":"dig-inn-new-york-12","city":"New York","geolocation":{"type":"Point","coordinates":[-74.011963,40.7042826]}},{"name":"May-Wah Vegetarian Market","categories":"may-wah-vegetarian-market-new-york-2","city":"New York","geolocation":{"type":"Point","coordinates":[-73.9990171031,40.718663748]}},{"name":"The Little Beet","categories":"the-little-beet-new-york-5","city":"New York","geolocation":{"type":"Point","coordinates":[-73.9921676,40.7499719]}},{"name":"Westville - Wall St","categories":"westville-wall-st-new-york-5","city":"New York","geolocation":{"type":"Point","coordinates":[-74.00652,40.70478]}},{"name":"Sweets by CHLOE","categories":"sweets-by-chloe-new-york-8","city":"New York","geolocation":{"type":"Point","coordinates":[-74.00098,40.729191]}},{"name":"The MasalaWala","categories":"the-masalawala-new-york-2","city":"New York","geolocation":{"type":"Point","coordinates":[-73.98666,40.72191]}},{"name":"Two Hands","categories":"two-hands-new-york-4","city":"New York","geolocation":{"type":"Point","coordinates":[-74.00547,40.71782]}},{"name":"LoveMama","categories":"lovemama-new-york","city":"New York","geolocation":{"type":"Point","coordinates":[-73.9860613,40.7303859]}},{"name":"Cocoron","categories":"cocoron-new-york-2","city":"New York","geolocation":{"type":"Point","coordinates":[-73.9953191,40.7207236]}},{"name":"Alimama","categories":"alimama-new-york-3","city":"New York","geolocation":{"type":"Point","coordinates":[-73.9992850858,40.7158626896]}},{"name":"Hey Chong Qing Noodle","categories":"hey-chong-qing-noodle-new-york","city":"New York","geolocation":{"type":"Point","coordinates":[-73.9817453223,40.74045]}},{"name":"Eva's Kitchen","categories":"evas-kitchen-new-york","city":"New York","geolocation":{"type":"Point","coordinates":[-73.997152,40.732822]}},{"name":"Black Cat LES","categories":"black-cat-les-new-york-2","city":"New York","geolocation":{"type":"Point","coordinates":[-73.984509,40.719129]}},{"name":"Springbone Kitchen","categories":"springbone-kitchen-new-york","city":"New York","geolocation":{"type":"Point","coordinates":[-73.99932,40.72986]}},{"name":"Seed + Mill","categories":"seed-mill-new-york","city":"New York","geolocation":{"type":"Point","coordinates":[-74.0056454,40.7420723]}},{"name":"El Vez Burrito Bar","categories":"el-vez-burrito-bar-new-york","city":"New York","geolocation":{"type":"Point","coordinates":[-74.015635,40.7147356377]}},{"name":"Maestro Pasta","categories":"maestro-pasta-new-york","city":"New York","geolocation":{"type":"Point","coordinates":[-74.007891,40.709329]}},{"name":"Itaewon","categories":"itaewon-new-york-2","city":"New York","geolocation":{"type":"Point","coordinates":[-73.9867554409,40.7475125112]}},{"name":"Kaffe 1668","categories":"kaffe-1668-new-york-3","city":"New York","geolocation":{"type":"Point","coordinates":[-74.00968,40.72092]}},{"name":"Pinky's Space","categories":"pinkys-space-new-york","city":"New York","geolocation":{"type":"Point","coordinates":[-73.98879,40.72355]}},{"name":"The Bean","categories":"the-bean-new-york-3","city":"New York","geolocation":{"type":"Point","coordinates":[-73.9896519939,40.7257617915]}},{"name":"BCD Tofu House","categories":"bcd-tofu-house-new-york-3","city":"New York","geolocation":{"type":"Point","coordinates":[-73.9862447208,40.7475036314]}},{"name":"Blackbarn Cafe | Bar","categories":"blackbarn-cafe-bar-new-york","city":"New York","geolocation":{"type":"Point","coordinates":[-74.0064163,40.7428934]}},{"name":"Market Crates","categories":"market-crates-new-york","city":"New York","geolocation":{"type":"Point","coordinates":[-73.986576,40.748279]}},{"name":"Sakib","categories":"sakib-new-york-2","city":"New York","geolocation":{"type":"Point","coordinates":[-73.962702,40.712023]}},{"name":"Very Fresh Noodles","categories":"very-fresh-noodles-new-york","city":"New York","geolocation":{"type":"Point","coordinates":[-74.00625,40.7423387008]}},{"name":"Taboonette","categories":"taboonette-new-york-2","city":"New York","geolocation":{"type":"Point","coordinates":[-74.00487,40.72945]}},{"name":"Fish Cheeks","categories":"fish-cheeks-new-york","city":"New York","geolocation":{"type":"Point","coordinates":[-73.9927,40.7258]}},{"name":"sweetgreen","categories":"sweetgreen-new-york-4","city":"New York","geolocation":{"type":"Point","coordinates":[-73.9972511652,40.7210635428]}},{"name":"Society Cafe","categories":"society-cafe-new-york-2","city":"New York","geolocation":{"type":"Point","coordinates":[-73.9965962,40.7362063]}},{"name":"Berber Street Food","categories":"berber-street-food-new-york-2","city":"New York","geolocation":{"type":"Point","coordinates":[-74.0033399463,40.7302376195]}},{"name":"Heavenly Market And Cafe","categories":"heavenly-market-and-cafe-new-york","city":"New York","geolocation":{"type":"Point","coordinates":[-73.994,40.73116]}},{"name":"Dr Smood Soho","categories":"dr-smood-soho-new-york-2","city":"New York","geolocation":{"type":"Point","coordinates":[-74.0014,40.72282]}},{"name":"Fong On","categories":"fong-on-new-york","city":"New York","geolocation":{"type":"Point","coordinates":[-73.9937,40.71417]}},{"name":"Melt Shop","categories":"melt-shop-new-york-7","city":"New York","geolocation":{"type":"Point","coordinates":[-74.0065573417,40.7097319538]}},{"name":"Two Boots Pizza - West Village","categories":"two-boots-pizza-west-village-new-york","city":"New York","geolocation":{"type":"Point","coordinates":[-73.998279,40.740009]}},{"name":"Bamboo Bites","categories":"bamboo-bites-new-york","city":"New York","geolocation":{"type":"Point","coordinates":[-73.9895,40.71835]}},{"name":"Arepa Factory","categories":"arepa-factory-new-york","city":"New York","geolocation":{"type":"Point","coordinates":[-73.98268,40.72748]}},{"name":"Thai Direct Bowls","categories":"thai-direct-bowls-new-york-4","city":"New York","geolocation":{"type":"Point","coordinates":[-73.98311,40.72688]}},{"name":"Banter","categories":"banter-new-york","city":"New York","geolocation":{"type":"Point","coordinates":[-74.0010999,40.72787]}},{"name":"indi thai","categories":"indi-thai-new-york","city":"New York","geolocation":{"type":"Point","coordinates":[-73.99035,40.71983]}},{"name":"Cath\u00e9drale Restaurant","categories":"cath\u00e9drale-restaurant-new-york","city":"New York","geolocation":{"type":"Point","coordinates":[-73.98951,40.7316]}},{"name":"Zest Ramen","categories":"zest-ramen-new-york-8","city":"New York","geolocation":{"type":"Point","coordinates":[-73.99186,40.71816]}},{"name":"Areppas","categories":"areppas-new-york-2","city":"New York","geolocation":{"type":"Point","coordinates":[-73.985479,40.740077]}},{"name":"nonono","categories":"nonono-new-york-6","city":"New York","geolocation":{"type":"Point","coordinates":[-73.98499,40.74545]}},{"name":"Cafe Himalaya","categories":"cafe-himalaya-new-york-2","city":"New York","geolocation":{"type":"Point","coordinates":[-73.9879441221,40.7232289034]}},{"name":"Cafe Greenpoint","categories":"cafe-greenpoint-new-york","city":"New York","geolocation":{"type":"Point","coordinates":[-73.950889,40.724431]}},{"name":"Tribeca's Kitchen","categories":"tribecas-kitchen-new-york","city":"New York","geolocation":{"type":"Point","coordinates":[-74.0072225928,40.7162705536]}},{"name":"Thy\u2019s Noodles","categories":"thy-s-noodles-new-york","city":"New York","geolocation":{"type":"Point","coordinates":[-73.9827849548,40.7419297394]}},{"name":"Sunny and Annie's","categories":"sunny-and-annies-new-york","city":"New York","geolocation":{"type":"Point","coordinates":[-73.981702,40.724653]}},{"name":"The Coppola Cafe","categories":"the-coppola-cafe-new-york","city":"New York","geolocation":{"type":"Point","coordinates":[-74.0016116022,40.732190163]}},{"name":"Yaso Noodle Bar","categories":"yaso-noodle-bar-new-york","city":"New York","geolocation":{"type":"Point","coordinates":[-73.994044,40.730208]}},{"name":"Gotan - Tribeca","categories":"gotan-tribeca-new-york-2","city":"New York","geolocation":{"type":"Point","coordinates":[-74.006607,40.719255]}},{"name":"Ginger and Lemongrass","categories":"ginger-and-lemongrass-new-york-2","city":"New York","geolocation":{"type":"Point","coordinates":[-73.98567,40.71912]}},{"name":"Brooklyn Bagel & Coffee Company","categories":"brooklyn-bagel-and-coffee-company-new-york-8","city":"New York","geolocation":{"type":"Point","coordinates":[-73.9932199,40.73104]}},{"name":"Tatsu Ramen","categories":"tatsu-ramen-new-york","city":"New York","geolocation":{"type":"Point","coordinates":[-73.98446,40.72908]}},{"name":"Three Times","categories":"three-times-new-york-3","city":"New York","geolocation":{"type":"Point","coordinates":[-73.985209,40.718271]}},{"name":"Jack's Wife Freda","categories":"jacks-wife-freda-new-york","city":"New York","geolocation":{"type":"Point","coordinates":[-73.99756,40.72213]}},{"name":"Local 92","categories":"local-92-new-york-32","city":"New York","geolocation":{"type":"Point","coordinates":[-73.9885354,40.726957]}},{"name":"GrandLo Cafe","categories":"grandlo-cafe-new-york-3","city":"New York","geolocation":{"type":"Point","coordinates":[-73.9854576,40.7168074]}},{"name":"Pinks Cantina","categories":"pinks-cantina-new-york-4","city":"New York","geolocation":{"type":"Point","coordinates":[-73.99189,40.72229]}},{"name":"Cinnamon Garden","categories":"cinnamon-garden-new-york","city":"New York","geolocation":{"type":"Point","coordinates":[-73.9872199,40.72674]}},{"name":"Downtown Bakery Cocina Mexicana","categories":"downtown-bakery-cocina-mexicana-new-york","city":"New York","geolocation":{"type":"Point","coordinates":[-73.98711,40.72543]}},{"name":"While We Were Young","categories":"while-we-were-young-new-york","city":"New York","geolocation":{"type":"Point","coordinates":[-74.00272,40.73437]}},{"name":"Cafe 11","categories":"cafe-11-new-york-4","city":"New York","geolocation":{"type":"Point","coordinates":[-74.0140703,40.7052529]}},{"name":"Bonsai Kakig\u014dri","categories":"bonsai-kakig\u014dri-new-york-3","city":"New York","geolocation":{"type":"Point","coordinates":[-73.987934,40.721372]}},{"name":"Michaeli Bakery","categories":"michaeli-bakery-new-york-2","city":"New York","geolocation":{"type":"Point","coordinates":[-73.992054,40.714349]}},{"name":"Proto's Pizza","categories":"protos-pizza-new-york-9","city":"New York","geolocation":{"type":"Point","coordinates":[-73.989746,40.725353]}},{"name":"Nami Nori","categories":"nami-nori-new-york","city":"New York","geolocation":{"type":"Point","coordinates":[-74.003212,40.730284]}},{"name":"NaNa Thai Street","categories":"nana-thai-street-new-york","city":"New York","geolocation":{"type":"Point","coordinates":[-73.98854,40.73954]}},{"name":"Junzi Kitchen","categories":"junzi-kitchen-new-york-13","city":"New York","geolocation":{"type":"Point","coordinates":[-74.004978,40.726138]}},{"name":"mochii","categories":"mochii-new-york-3","city":"New York","geolocation":{"type":"Point","coordinates":[-73.98447,40.72634]}},{"name":"Charley St","categories":"charley-st-new-york","city":"New York","geolocation":{"type":"Point","coordinates":[-73.99548,40.72093]}},{"name":"John's of 12th Street","categories":"johns-of-12th-street-new-york-2","city":"New York","geolocation":{"type":"Point","coordinates":[-73.985502,40.730685]}},{"name":"Frangos Peri Peri","categories":"frangos-peri-peri-new-york","city":"New York","geolocation":{"type":"Point","coordinates":[-73.979444,40.727787]}},{"name":"Maman Soho","categories":"maman-soho-new-york","city":"New York","geolocation":{"type":"Point","coordinates":[-73.9984,40.72028]}},{"name":"Westville Chelsea","categories":"westville-chelsea-new-york-2","city":"New York","geolocation":{"type":"Point","coordinates":[-74.00007,40.74175]}},{"name":"The Shakespeare","categories":"the-shakespeare-new-york","city":"New York","geolocation":{"type":"Point","coordinates":[-73.9801755,40.7506062]}},{"name":"Taco Mahal","categories":"taco-mahal-new-york","city":"New York","geolocation":{"type":"Point","coordinates":[-74.003303,40.732337]}},{"name":"Wolfnights","categories":"wolfnights-new-york","city":"New York","geolocation":{"type":"Point","coordinates":[-73.9885666,40.7198896]}},{"name":"Loring Place","categories":"loring-place-new-york-2","city":"New York","geolocation":{"type":"Point","coordinates":[-73.99754,40.73299]}},{"name":"Little River","categories":"little-river-new-york-2","city":"New York","geolocation":{"type":"Point","coordinates":[-73.974203,40.739709]}},{"name":"Tramezzini NYC","categories":"tramezzini-nyc-new-york","city":"New York","geolocation":{"type":"Point","coordinates":[-73.9834727264,40.7211848352]}},{"name":"&pizza","categories":"and-pizza-new-york-9","city":"New York","geolocation":{"type":"Point","coordinates":[-73.9880992,40.745294]}},{"name":"&pizza","categories":"and-pizza-new-york-13","city":"New York","geolocation":{"type":"Point","coordinates":[-74.00859,40.70579]}},{"name":"wagamama - murray hill","categories":"wagamama-murray-hill-new-york","city":"New York","geolocation":{"type":"Point","coordinates":[-73.9754,40.74909]}},{"name":"Dudley's","categories":"dudleys-new-york","city":"New York","geolocation":{"type":"Point","coordinates":[-73.99042,40.71798]}},{"name":"Manhatta","categories":"manhatta-new-york","city":"New York","geolocation":{"type":"Point","coordinates":[-74.008851,40.707762]}},{"name":"Taco Dumbo","categories":"taco-dumbo-new-york-6","city":"New York","geolocation":{"type":"Point","coordinates":[-73.99674,40.72206]}},{"name":"Empanada Mama L.E.S","categories":"empanada-mama-l-e-s-new-york-7","city":"New York","geolocation":{"type":"Point","coordinates":[-73.9909,40.71873]}},{"name":"Lite Delights","categories":"lite-delights-new-york-2","city":"New York","geolocation":{"type":"Point","coordinates":[-73.99463,40.72454]}},{"name":"Mi Noodle Bar","categories":"mi-noodle-bar-new-york","city":"New York","geolocation":{"type":"Point","coordinates":[-73.981304,40.7377]}},{"name":"Blue Park Kitchen","categories":"blue-park-kitchen-new-york","city":"New York","geolocation":{"type":"Point","coordinates":[-74.0076944,40.7063449]}},{"name":"Kitsby","categories":"kitsby-new-york-3","city":"New York","geolocation":{"type":"Point","coordinates":[-73.96098,40.71411]}},{"name":"Taim Flatiron","categories":"taim-flatiron-new-york","city":"New York","geolocation":{"type":"Point","coordinates":[-73.9931,40.74205]}},{"name":"Posh Pop Bakeshop","categories":"posh-pop-bakeshop-new-york-2","city":"New York","geolocation":{"type":"Point","coordinates":[-74.0015334018,40.7291965397]}},{"name":"Bite Food & Coffee","categories":"bite-food-and-coffee-new-york","city":"New York","geolocation":{"type":"Point","coordinates":[-73.99103,40.73288]}},{"name":"Shinka Ramen & Sake Bar","categories":"shinka-ramen-and-sake-bar-new-york-3","city":"New York","geolocation":{"type":"Point","coordinates":[-73.995257467,40.7170795323]}},{"name":"Melt Shop","categories":"melt-shop-new-york-11","city":"New York","geolocation":{"type":"Point","coordinates":[-73.98980717,40.73335883]}},{"name":"Little Atlas","categories":"little-atlas-new-york-3","city":"New York","geolocation":{"type":"Point","coordinates":[-73.99473,40.728589]}},{"name":"Wok Wok","categories":"wok-wok-new-york","city":"New York","geolocation":{"type":"Point","coordinates":[-73.99883,40.71406]}},{"name":"Now or Never","categories":"now-or-never-new-york-3","city":"New York","geolocation":{"type":"Point","coordinates":[-74.00456,40.72295]}},{"name":"NYC Falafel","categories":"nyc-falafel-new-york-2","city":"New York","geolocation":{"type":"Point","coordinates":[-73.9890300483,40.7225149192]}},{"name":"Coco & Cru","categories":"coco-and-cru-new-york","city":"New York","geolocation":{"type":"Point","coordinates":[-73.9960178733,40.7267218936]}},{"name":"Juicy Lucy Juice Bar","categories":"juicy-lucy-juice-bar-new-york","city":"New York","geolocation":{"type":"Point","coordinates":[-73.9843,40.72526]}},{"name":"Lyfeping Tribeca Juice and Smoothie Station","categories":"lyfeping-tribeca-juice-and-smoothie-station-new-york","city":"New York","geolocation":{"type":"Point","coordinates":[-74.0081977,40.7151787]}},{"name":"Bowery Road","categories":"bowery-road-new-york-3","city":"New York","geolocation":{"type":"Point","coordinates":[-73.9901924,40.7333427]}},{"name":"Thursday Kitchen","categories":"thursday-kitchen-new-york","city":"New York","geolocation":{"type":"Point","coordinates":[-73.9838,40.7275]}},{"name":"Marinara Pizza","categories":"marinara-pizza-new-york-8","city":"New York","geolocation":{"type":"Point","coordinates":[-73.98452,40.74241]}},{"name":"Thai Villa","categories":"thai-villa-new-york-2","city":"New York","geolocation":{"type":"Point","coordinates":[-73.99065,40.73902]}},{"name":"V-Nam Cafe","categories":"v-nam-cafe-new-york","city":"New York","geolocation":{"type":"Point","coordinates":[-73.9881201812,40.7233696141]}},{"name":"Friedman's","categories":"friedmans-new-york-59","city":"New York","geolocation":{"type":"Point","coordinates":[-73.990649,40.748297]}},{"name":"Old Fashioned Pizza","categories":"old-fashioned-pizza-new-york-2","city":"New York","geolocation":{"type":"Point","coordinates":[-73.98607,40.73182]}},{"name":"sai gon dep","categories":"sai-gon-dep-new-york-2","city":"New York","geolocation":{"type":"Point","coordinates":[-73.97396,40.74773]}},{"name":"CC's Cafe","categories":"ccs-cafe-new-york-2","city":"New York","geolocation":{"type":"Point","coordinates":[-73.99452,40.71166]}},{"name":"High Vibe","categories":"high-vibe-new-york","city":"New York","geolocation":{"type":"Point","coordinates":[-73.9858337,40.7237494]}},{"name":"The Bean","categories":"the-bean-new-york-5","city":"New York","geolocation":{"type":"Point","coordinates":[-73.9909386026,40.7330472185]}},{"name":"Black Burger","categories":"black-burger-new-york","city":"New York","geolocation":{"type":"Point","coordinates":[-74.00497,40.72138]}},{"name":"The Donut Pub","categories":"the-donut-pub-new-york-7","city":"New York","geolocation":{"type":"Point","coordinates":[-73.992809,40.729845]}},{"name":"Citizens of Chelsea","categories":"citizens-of-chelsea-new-york","city":"New York","geolocation":{"type":"Point","coordinates":[-74.000569,40.748123]}},{"name":"Balaboosta","categories":"balaboosta-new-york-3","city":"New York","geolocation":{"type":"Point","coordinates":[-74.00584,40.73769]}},{"name":"CAVA","categories":"cava-new-york-4","city":"New York","geolocation":{"type":"Point","coordinates":[-73.9896078601,40.7337897786]}},{"name":"Ni Japanese Delicacies","categories":"ni-japanese-delicacies-new-york","city":"New York","geolocation":{"type":"Point","coordinates":[-73.9881543,40.7185896]}},{"name":"Simple NYC","categories":"simple-nyc-new-york-3","city":"New York","geolocation":{"type":"Point","coordinates":[-73.99223,40.71821]}},{"name":"Outro","categories":"outro-new-york","city":"New York","geolocation":{"type":"Point","coordinates":[-73.9910601452,40.7327799574]}},{"name":"Bite","categories":"bite-new-york","city":"New York","geolocation":{"type":"Point","coordinates":[-73.9946338116,40.7257318645]}},{"name":"Cheeky Sandwiches","categories":"cheeky-sandwiches-new-york","city":"New York","geolocation":{"type":"Point","coordinates":[-73.99169,40.7158]}},{"name":"5C Cafe","categories":"5c-cafe-new-york","city":"New York","geolocation":{"type":"Point","coordinates":[-73.9796559,40.7227353]}},{"name":"The Hideout Chai Bar","categories":"the-hideout-chai-bar-new-york","city":"New York","geolocation":{"type":"Point","coordinates":[-73.9910624415,40.7209790413]}},{"name":"Calle Dao - Chelsea","categories":"calle-dao-chelsea-new-york","city":"New York","geolocation":{"type":"Point","coordinates":[-74.0037312,40.7476515]}},{"name":"19 Cleveland By Nish Nush","categories":"19-cleveland-by-nish-nush-new-york","city":"New York","geolocation":{"type":"Point","coordinates":[-73.99722,40.72164]}},{"name":"Luchadores","categories":"luchadores-new-york","city":"New York","geolocation":{"type":"Point","coordinates":[-74.00411,40.70582]}},{"name":"Chennai Garden by Tiffin Wallah","categories":"chennai-garden-by-tiffin-wallah-new-york","city":"New York","geolocation":{"type":"Point","coordinates":[-73.98274,40.74298]}},{"name":"GFG Bakery Cafe","categories":"gfg-bakery-cafe-new-york-3","city":"New York","geolocation":{"type":"Point","coordinates":[-74.00561,40.71025]}},{"name":"Luna Coffee Shop","categories":"luna-coffee-shop-new-york-2","city":"New York","geolocation":{"type":"Point","coordinates":[-73.9910034435,40.7472270748]}},{"name":"Green Healthy Food Cafe","categories":"green-healthy-food-cafe-new-york","city":"New York","geolocation":{"type":"Point","coordinates":[-74.0082,40.70697]}},{"name":"The Bean","categories":"the-bean-new-york-12","city":"New York","geolocation":{"type":"Point","coordinates":[-73.9895278156,40.7297657526]}},{"name":"The Bluebell Cafe","categories":"the-bluebell-cafe-new-york","city":"New York","geolocation":{"type":"Point","coordinates":[-73.98321,40.73845]}},{"name":"Healthy Green Juice Bar","categories":"healthy-green-juice-bar-new-york","city":"New York","geolocation":{"type":"Point","coordinates":[-74.00846,40.70948]}},{"name":"Tiny's Giant Sandwich Shop","categories":"tinys-giant-sandwich-shop-new-york","city":"New York","geolocation":{"type":"Point","coordinates":[-73.98699,40.7195]}},{"name":"Village Square Pizza","categories":"village-square-pizza-new-york-3","city":"New York","geolocation":{"type":"Point","coordinates":[-73.98268,40.72748]}},{"name":"Vatan Indian Vegetarian","categories":"vatan-indian-vegetarian-new-york-2","city":"New York","geolocation":{"type":"Point","coordinates":[-73.9803699,40.74236]}},{"name":"Casa Nomad","categories":"casa-nomad-new-york-3","city":"New York","geolocation":{"type":"Point","coordinates":[-73.98825,40.746293]}},{"name":"Cobble & Co.","categories":"cobble-and-co-new-york","city":"New York","geolocation":{"type":"Point","coordinates":[-74.00356,40.70701]}},{"name":"The Bowery Market","categories":"the-bowery-market-new-york","city":"New York","geolocation":{"type":"Point","coordinates":[-73.9920272827,40.7266426086]}},{"name":"sweetgreen","categories":"sweetgreen-new-york-2","city":"New York","geolocation":{"type":"Point","coordinates":[-73.9886377752,40.7448032396]}},{"name":"B&H Dairy","categories":"b-and-h-dairy-new-york-2","city":"New York","geolocation":{"type":"Point","coordinates":[-73.9881668,40.7284584]}},{"name":"Grandaisy Bakery","categories":"grandaisy-bakery-new-york-4","city":"New York","geolocation":{"type":"Point","coordinates":[-74.0058677653,40.7200203725]}},{"name":"Dig Inn","categories":"dig-inn-new-york-13","city":"New York","geolocation":{"type":"Point","coordinates":[-74.0158975878,40.712647297]}},{"name":"Eat Offbeat","categories":"eat-offbeat-new-york","city":"New York","geolocation":{"type":"Point","coordinates":[-74.0058979,40.727033]}},{"name":"Manousheh","categories":"manousheh-new-york-2","city":"New York","geolocation":{"type":"Point","coordinates":[-74.00134,40.7293499]}},{"name":"Ono Bowls","categories":"ono-bowls-new-york","city":"New York","geolocation":{"type":"Point","coordinates":[-73.994267,40.731503]}},{"name":"Sons of Thunder","categories":"sons-of-thunder-new-york-7","city":"New York","geolocation":{"type":"Point","coordinates":[-74.0057842622,40.7073200235]}},{"name":"Bao Bao Cafe","categories":"bao-bao-cafe-new-york-2","city":"New York","geolocation":{"type":"Point","coordinates":[-73.983474,40.740829]}},{"name":"Nakamura","categories":"nakamura-new-york","city":"New York","geolocation":{"type":"Point","coordinates":[-73.985115,40.717975]}},{"name":"Boilery - East Village","categories":"boilery-east-village-new-york","city":"New York","geolocation":{"type":"Point","coordinates":[-73.98898,40.73112]}},{"name":"Hu Kitchen","categories":"hu-kitchen-new-york","city":"New York","geolocation":{"type":"Point","coordinates":[-73.994185,40.735823]}},{"name":"Kokage","categories":"kokage-new-york","city":"New York","geolocation":{"type":"Point","coordinates":[-73.9777215,40.7498614]}},{"name":"Taim Nolita","categories":"taim-nolita-new-york","city":"New York","geolocation":{"type":"Point","coordinates":[-73.9961312442,40.721997846]}},{"name":"Juice & Joy Organic Coffee","categories":"juice-and-joy-organic-coffee-new-york","city":"New York","geolocation":{"type":"Point","coordinates":[-73.998711817,40.7345281159]}},{"name":"Angela's Ice Cream & Desserts","categories":"angelas-ice-cream-and-desserts-new-york","city":"New York","geolocation":{"type":"Point","coordinates":[-73.989957,40.720894]}},{"name":"Raku","categories":"raku-new-york-6","city":"New York","geolocation":{"type":"Point","coordinates":[-74.00252,40.72728]}},{"name":"Barneys Bone Broth","categories":"barneys-bone-broth-new-york","city":"New York","geolocation":{"type":"Point","coordinates":[-73.99462,40.73036]}},{"name":"Silky Kitchen","categories":"silky-kitchen-new-york-3","city":"New York","geolocation":{"type":"Point","coordinates":[-73.98829,40.73297]}},{"name":"Maman Tribeca","categories":"maman-tribeca-new-york-2","city":"New York","geolocation":{"type":"Point","coordinates":[-74.0062207,40.7188969]}},{"name":"Urban Backyard","categories":"urban-backyard-new-york","city":"New York","geolocation":{"type":"Point","coordinates":[-73.99646,40.72077]}},{"name":"S'MAC","categories":"smac-new-york","city":"New York","geolocation":{"type":"Point","coordinates":[-73.983724,40.730212]}},{"name":"Wattle Cafe","categories":"wattle-cafe-new-york-4","city":"New York","geolocation":{"type":"Point","coordinates":[-73.99278,40.73064]}},{"name":"Bareburger","categories":"bareburger-new-york-27","city":"New York","geolocation":{"type":"Point","coordinates":[-73.98857,40.72159]}},{"name":"Jack's Wife Freda","categories":"jacks-wife-freda-new-york-2","city":"New York","geolocation":{"type":"Point","coordinates":[-74.003516,40.729826]}},{"name":"Fonda East Village","categories":"fonda-east-village-new-york-2","city":"New York","geolocation":{"type":"Point","coordinates":[-73.98286,40.722852]}},{"name":"Honeybrains","categories":"honeybrains-new-york-2","city":"New York","geolocation":{"type":"Point","coordinates":[-73.993962,40.727156]}},{"name":"1803","categories":"1803-new-york","city":"New York","geolocation":{"type":"Point","coordinates":[-74.007178,40.715498]}},{"name":"Dil-e Punjab Deli","categories":"dil-e-punjab-deli-new-york-2","city":"New York","geolocation":{"type":"Point","coordinates":[-74.00206,40.74482]}},{"name":"Mr. Taka Ramen","categories":"mr-taka-ramen-new-york","city":"New York","geolocation":{"type":"Point","coordinates":[-73.98903,40.72128]}},{"name":"&pizza","categories":"and-pizza-new-york-10","city":"New York","geolocation":{"type":"Point","coordinates":[-73.9926904,40.729798]}},{"name":"Champion Pizza","categories":"champion-pizza-new-york-6","city":"New York","geolocation":{"type":"Point","coordinates":[-73.9970855713,40.7215270996]}},{"name":"deep indian kitchen - indikitch","categories":"deep-indian-kitchen-indikitch-new-york-20","city":"New York","geolocation":{"type":"Point","coordinates":[-73.9904403687,40.7422142029]}},{"name":"Somtum Der","categories":"somtum-der-new-york","city":"New York","geolocation":{"type":"Point","coordinates":[-73.9842741682,40.7252151982]}},{"name":"Summers SoHo","categories":"summers-soho-new-york","city":"New York","geolocation":{"type":"Point","coordinates":[-74.000403,40.727713]}},{"name":"Dough Vale","categories":"dough-vale-new-york","city":"New York","geolocation":{"type":"Point","coordinates":[-73.95407,40.70933]}},{"name":"The Greenmarket At Bowling Green","categories":"the-greenmarket-at-bowling-green-new-york-2","city":"New York","geolocation":{"type":"Point","coordinates":[-74.0141263,40.7045191]}},{"name":"Konditori","categories":"konditori-new-york-9","city":"New York","geolocation":{"type":"Point","coordinates":[-73.957937,40.708606]}},{"name":"Caff\u00e8 Panna","categories":"caff\u00e8-panna-new-york","city":"New York","geolocation":{"type":"Point","coordinates":[-73.986817,40.736886]}},{"name":"Van Leeuwen Ice Cream","categories":"van-leeuwen-ice-cream-new-york-7","city":"New York","geolocation":{"type":"Point","coordinates":[-74.0020983,40.7076975]}},{"name":"Canary Club","categories":"canary-club-new-york","city":"New York","geolocation":{"type":"Point","coordinates":[-73.992411,40.718637]}},{"name":"Anytime","categories":"anytime-new-york","city":"New York","geolocation":{"type":"Point","coordinates":[-73.98674,40.74779]}},{"name":"Matto Espresso","categories":"matto-espresso-new-york-15","city":"New York","geolocation":{"type":"Point","coordinates":[-73.97776,40.75024]}},{"name":"Ost Cafe","categories":"ost-cafe-new-york-3","city":"New York","geolocation":{"type":"Point","coordinates":[-73.98214,40.71445]}},{"name":"Ippudo NY","categories":"ippudo-ny-new-york-7","city":"New York","geolocation":{"type":"Point","coordinates":[-73.99015,40.73092]}},{"name":"Scarr's Pizza","categories":"scarrs-pizza-new-york","city":"New York","geolocation":{"type":"Point","coordinates":[-73.9914,40.71534]}},{"name":"The Grey Dog","categories":"the-grey-dog-new-york-5","city":"New York","geolocation":{"type":"Point","coordinates":[-74.000648,40.740624]}},{"name":"Foragers Table","categories":"foragers-table-new-york-3","city":"New York","geolocation":{"type":"Point","coordinates":[-73.9990926,40.744541]}},{"name":"Pause Cafe","categories":"pause-cafe-new-york","city":"New York","geolocation":{"type":"Point","coordinates":[-73.98408,40.72123]}},{"name":"Merriweather Coffee + Kitchen","categories":"merriweather-coffee-kitchen-new-york","city":"New York","geolocation":{"type":"Point","coordinates":[-74.0065,40.7305599]}},{"name":"Springbone Kitchen","categories":"springbone-kitchen-new-york-3","city":"New York","geolocation":{"type":"Point","coordinates":[-74.01046,40.70374]}},{"name":"Taboonette","categories":"taboonette-new-york","city":"New York","geolocation":{"type":"Point","coordinates":[-73.9927323,40.7347009]}},{"name":"Eat Gai","categories":"eat-gai-new-york-2","city":"New York","geolocation":{"type":"Point","coordinates":[-73.98298,40.72495]}},{"name":"Bite","categories":"bite-new-york-6","city":"New York","geolocation":{"type":"Point","coordinates":[-73.99305,40.74189]}},{"name":"Future You Caf\u00e9","categories":"future-you-caf\u00e9-new-york","city":"New York","geolocation":{"type":"Point","coordinates":[-73.98437,40.72651]}},{"name":"Greecologies","categories":"greecologies-new-york","city":"New York","geolocation":{"type":"Point","coordinates":[-73.996581,40.720387]}},{"name":"Wild","categories":"wild-new-york","city":"New York","geolocation":{"type":"Point","coordinates":[-74.00632,40.73474]}},{"name":"Tasty Hand-Pulled Noodles","categories":"tasty-hand-pulled-noodles-new-york","city":"New York","geolocation":{"type":"Point","coordinates":[-73.99787,40.7142]}},{"name":"Citizens Of Gramercy","categories":"citizens-of-gramercy-new-york-2","city":"New York","geolocation":{"type":"Point","coordinates":[-73.98152,40.73674]}},{"name":"Mamoun's Falafel","categories":"mamouns-falafel-new-york","city":"New York","geolocation":{"type":"Point","coordinates":[-73.9884633484,40.7288849575]}},{"name":"Hwa Yuan","categories":"hwa-yuan-new-york-2","city":"New York","geolocation":{"type":"Point","coordinates":[-73.99598,40.7137]}},{"name":"Westville Hudson","categories":"westville-hudson-new-york","city":"New York","geolocation":{"type":"Point","coordinates":[-74.007683,40.727125]}},{"name":"Cafe Patoro","categories":"cafe-patoro-new-york","city":"New York","geolocation":{"type":"Point","coordinates":[-74.0023160353,40.7072720975]}},{"name":"Dig Inn","categories":"dig-inn-new-york-33","city":"New York","geolocation":{"type":"Point","coordinates":[-74.00995,40.72188]}},{"name":"Blue Hill","categories":"blue-hill-new-york","city":"New York","geolocation":{"type":"Point","coordinates":[-73.9996931019,40.7320640252]}},{"name":"Adalya","categories":"adalya-new-york","city":"New York","geolocation":{"type":"Point","coordinates":[-73.9874085025,40.7362094701]}},{"name":"Chuy\u2019s Cantina","categories":"chuy-s-cantina-new-york","city":"New York","geolocation":{"type":"Point","coordinates":[-73.9509772823,40.7114816829]}},{"name":"CAVA","categories":"cava-new-york-6","city":"New York","geolocation":{"type":"Point","coordinates":[-73.9855104,40.7408422]}},{"name":"Distilled","categories":"distilled-new-york","city":"New York","geolocation":{"type":"Point","coordinates":[-74.0062975,40.7189994]}},{"name":"Roti Modern Mediterranean","categories":"roti-modern-mediterranean-new-york","city":"New York","geolocation":{"type":"Point","coordinates":[-74.007133,40.706518]}},{"name":"Keste Fulton","categories":"keste-fulton-new-york","city":"New York","geolocation":{"type":"Point","coordinates":[-74.004869,40.709239]}},{"name":"SIM\u00d2 PIZZA","categories":"sim\u00f2-pizza-new-york-4","city":"New York","geolocation":{"type":"Point","coordinates":[-74.0088130692,40.7392597585]}},{"name":"Dig Inn","categories":"dig-inn-new-york-23","city":"New York","geolocation":{"type":"Point","coordinates":[-73.9969,40.72377]}},{"name":"Balzem","categories":"balzem-new-york","city":"New York","geolocation":{"type":"Point","coordinates":[-73.995415,40.721408]}},{"name":"Spiegel","categories":"spiegel-new-york-2","city":"New York","geolocation":{"type":"Point","coordinates":[-73.98783,40.723690033]}},{"name":"Proong Noodle Bar","categories":"proong-noodle-bar-new-york-6","city":"New York","geolocation":{"type":"Point","coordinates":[-73.98003,40.73528]}},{"name":"Rivington Foods Marketplace","categories":"rivington-foods-marketplace-new-york-3","city":"New York","geolocation":{"type":"Point","coordinates":[-73.9827,40.71845]}},{"name":"Mamoun's Falafel","categories":"mamouns-falafel-new-york-2","city":"New York","geolocation":{"type":"Point","coordinates":[-74.0004383,40.7302874]}},{"name":"MAKIINNY","categories":"makiinny-new-york-3","city":"New York","geolocation":{"type":"Point","coordinates":[-73.98914,40.72831]}},{"name":"Dun Huang - East Village","categories":"dun-huang-east-village-new-york-8","city":"New York","geolocation":{"type":"Point","coordinates":[-73.98568,40.73081]}},{"name":"The Hummus & Pita","categories":"the-hummus-and-pita-new-york-4","city":"New York","geolocation":{"type":"Point","coordinates":[-73.99605,40.73928]}},{"name":"Banh Mi Zon","categories":"banh-mi-zon-new-york-4","city":"New York","geolocation":{"type":"Point","coordinates":[-73.9842575,40.7256861]}},{"name":"Koku Ramen","categories":"koku-ramen-new-york-4","city":"New York","geolocation":{"type":"Point","coordinates":[-73.9861784,40.7472532]}},{"name":"Hemispheres","categories":"hemispheres-new-york","city":"New York","geolocation":{"type":"Point","coordinates":[-74.0039697809,40.7416873877]}},{"name":"Junzi Kitchen","categories":"junzi-kitchen-new-york-7","city":"New York","geolocation":{"type":"Point","coordinates":[-74.00061,40.72878]}},{"name":"Nightmarket","categories":"nightmarket-new-york","city":"New York","geolocation":{"type":"Point","coordinates":[-73.98525,40.72737]}},{"name":"Bite","categories":"bite-new-york-3","city":"New York","geolocation":{"type":"Point","coordinates":[-73.986158,40.733163]}},{"name":"Sweet Chick","categories":"sweet-chick-new-york","city":"New York","geolocation":{"type":"Point","coordinates":[-73.98739,40.7217399]}},{"name":"Meet Noodles","categories":"meet-noodles-new-york-4","city":"New York","geolocation":{"type":"Point","coordinates":[-73.9891,40.73097]}},{"name":"Kaikagetsu NYC","categories":"kaikagetsu-nyc-new-york-2","city":"New York","geolocation":{"type":"Point","coordinates":[-73.98848,40.72104]}},{"name":"Les Enfants de Boheme","categories":"les-enfants-de-boheme-new-york","city":"New York","geolocation":{"type":"Point","coordinates":[-73.9888503,40.7136187]}},{"name":"Dalup","categories":"dalup-new-york","city":"New York","geolocation":{"type":"Point","coordinates":[-73.992966,40.748216]}},{"name":"wagamama - nomad","categories":"wagamama-nomad-new-york","city":"New York","geolocation":{"type":"Point","coordinates":[-73.98873,40.74336]}},{"name":"Cheese Grille","categories":"cheese-grille-new-york","city":"New York","geolocation":{"type":"Point","coordinates":[-73.9886709,40.7219115]}},{"name":"Grounded","categories":"grounded-new-york","city":"New York","geolocation":{"type":"Point","coordinates":[-74.0034,40.73806]}},{"name":"Ariccia","categories":"ariccia-new-york","city":"New York","geolocation":{"type":"Point","coordinates":[-74.0034289,40.7291099]}},{"name":"Her Name Is Han","categories":"her-name-is-han-new-york-3","city":"New York","geolocation":{"type":"Point","coordinates":[-73.98473,40.74626]}},{"name":"City Vineyard","categories":"city-vineyard-new-york","city":"New York","geolocation":{"type":"Point","coordinates":[-74.0118093,40.7205582]}},{"name":"Taco Dumbo","categories":"taco-dumbo-new-york","city":"New York","geolocation":{"type":"Point","coordinates":[-73.991708,40.750297]}},{"name":"Chow House","categories":"chow-house-new-york","city":"New York","geolocation":{"type":"Point","coordinates":[-74.00072,40.72915]}},{"name":"Lovely Day","categories":"lovely-day-new-york","city":"New York","geolocation":{"type":"Point","coordinates":[-73.994275,40.721774]}},{"name":"Xi'an Famous Foods","categories":"xian-famous-foods-new-york-30","city":"New York","geolocation":{"type":"Point","coordinates":[-73.997342,40.715082]}},{"name":"Dimes","categories":"dimes-new-york-3","city":"New York","geolocation":{"type":"Point","coordinates":[-73.991539,40.714973]}},{"name":"Schilling","categories":"schilling-new-york","city":"New York","geolocation":{"type":"Point","coordinates":[-74.014,40.70857]}},{"name":"Hampton Chutney","categories":"hampton-chutney-new-york-2","city":"New York","geolocation":{"type":"Point","coordinates":[-73.99959,40.72007]}},{"name":"Underground Pizza","categories":"underground-pizza-new-york","city":"New York","geolocation":{"type":"Point","coordinates":[-74.00961,40.70499]}},{"name":"Lighthouse Outpost","categories":"lighthouse-outpost-new-york","city":"New York","geolocation":{"type":"Point","coordinates":[-73.99617,40.722892]}},{"name":"Saigon Vietnamese Sandwich Deli","categories":"saigon-vietnamese-sandwich-deli-new-york","city":"New York","geolocation":{"type":"Point","coordinates":[-73.9958631,40.7199582]}},{"name":"Pi Bakerie","categories":"pi-bakerie-new-york-2","city":"New York","geolocation":{"type":"Point","coordinates":[-74.00329,40.72361]}},{"name":"L'Accolade","categories":"l-accolade-new-york","city":"New York","geolocation":{"type":"Point","coordinates":[-74.003915,40.732484]}},{"name":"The Elk","categories":"the-elk-new-york","city":"New York","geolocation":{"type":"Point","coordinates":[-74.0074790169,40.7341962235]}},{"name":"Boucherie West Village","categories":"boucherie-west-village-new-york-3","city":"New York","geolocation":{"type":"Point","coordinates":[-74.0028772,40.733063]}},{"name":"Natureworks","categories":"natureworks-new-york-2","city":"New York","geolocation":{"type":"Point","coordinates":[-73.981859,40.745068]}},{"name":"The Greek","categories":"the-greek-new-york","city":"New York","geolocation":{"type":"Point","coordinates":[-74.0096166,40.7237145]}},{"name":"Two Hands","categories":"two-hands-new-york-3","city":"New York","geolocation":{"type":"Point","coordinates":[-73.9961054743,40.7196877017]}},{"name":"Yokoya","categories":"yokoya-new-york-5","city":"New York","geolocation":{"type":"Point","coordinates":[-73.98917,40.72254]}},{"name":"Ourika","categories":"ourika-new-york","city":"New York","geolocation":{"type":"Point","coordinates":[-73.98468,40.72008]}},{"name":"BONMi","categories":"bonmi-new-york-3","city":"New York","geolocation":{"type":"Point","coordinates":[-73.98538,40.73995]}},{"name":"R17","categories":"r17-new-york","city":"New York","geolocation":{"type":"Point","coordinates":[-74.001748,40.70577]}},{"name":"Laut Singapura","categories":"laut-singapura-new-york","city":"New York","geolocation":{"type":"Point","coordinates":[-73.98896,40.73895]}},{"name":"Feb 30","categories":"feb-30-new-york","city":"New York","geolocation":{"type":"Point","coordinates":[-74.000741847,40.7296088493]}},{"name":"ROLLN","categories":"rolln-new-york","city":"New York","geolocation":{"type":"Point","coordinates":[-73.98736,40.74044]}},{"name":"Van Leeuwen Ice Cream","categories":"van-leeuwen-ice-cream-new-york-6","city":"New York","geolocation":{"type":"Point","coordinates":[-74.0012722837,40.7344208102]}},{"name":"CK14  The Crooked Knife","categories":"ck14-the-crooked-knife-new-york-2","city":"New York","geolocation":{"type":"Point","coordinates":[-74.001506,40.739015]}},{"name":"The Kati Roll Company","categories":"the-kati-roll-company-new-york","city":"New York","geolocation":{"type":"Point","coordinates":[-74.000964,40.729634]}},{"name":"Belle Reve","categories":"belle-reve-new-york","city":"New York","geolocation":{"type":"Point","coordinates":[-74.0041143884,40.7194897]}},{"name":"Jack's Stir Brew Coffee","categories":"jacks-stir-brew-coffee-new-york-6","city":"New York","geolocation":{"type":"Point","coordinates":[-74.004901,40.71941]}},{"name":"Grape and Grain","categories":"grape-and-grain-new-york","city":"New York","geolocation":{"type":"Point","coordinates":[-73.980757,40.724055]}},{"name":"Dorado Tacos","categories":"dorado-tacos-new-york-4","city":"New York","geolocation":{"type":"Point","coordinates":[-73.993172,40.733963]}},{"name":"Calexico - East Village","categories":"calexico-east-village-new-york","city":"New York","geolocation":{"type":"Point","coordinates":[-73.98883,40.72732]}},{"name":"Proper Food","categories":"proper-food-new-york","city":"New York","geolocation":{"type":"Point","coordinates":[-74.00827,40.70564]}},{"name":"Bluestone Lane","categories":"bluestone-lane-new-york-9","city":"New York","geolocation":{"type":"Point","coordinates":[-73.9901293,40.730139]}},{"name":"Coppelia","categories":"coppelia-new-york","city":"New York","geolocation":{"type":"Point","coordinates":[-73.99995,40.73897]}},{"name":"Senza Gluten Cafe & Bakery","categories":"senza-gluten-cafe-and-bakery-new-york","city":"New York","geolocation":{"type":"Point","coordinates":[-74.00097,40.72803]}},{"name":"Ten Hope BK","categories":"ten-hope-bk-new-york","city":"New York","geolocation":{"type":"Point","coordinates":[-73.957576,40.713658]}},{"name":"Cheska's","categories":"cheskas-new-york-3","city":"New York","geolocation":{"type":"Point","coordinates":[-73.99202,40.72664]}},{"name":"The Grey Dog - Union Square","categories":"the-grey-dog-union-square-new-york","city":"New York","geolocation":{"type":"Point","coordinates":[-73.993052,40.733828]}},{"name":"Vietspot Tribeca","categories":"vietspot-tribeca-new-york-3","city":"New York","geolocation":{"type":"Point","coordinates":[-74.006995,40.716473]}},{"name":"East Village Pizza","categories":"east-village-pizza-new-york","city":"New York","geolocation":{"type":"Point","coordinates":[-73.9852499,40.72823]}},{"name":"EAK RAMEN - NY West Village","categories":"eak-ramen-ny-west-village-new-york-2","city":"New York","geolocation":{"type":"Point","coordinates":[-73.99837,40.73568]}},{"name":"Inday","categories":"inday-new-york-2","city":"New York","geolocation":{"type":"Point","coordinates":[-73.9892206,40.7434986]}},{"name":"Humble Fish","categories":"humble-fish-new-york","city":"New York","geolocation":{"type":"Point","coordinates":[-74.00354,40.71996]}},{"name":"Mint Masala","categories":"mint-masala-new-york","city":"New York","geolocation":{"type":"Point","coordinates":[-74.00115,40.72953]}},{"name":"Clay Pot - West Village","categories":"clay-pot-west-village-new-york-2","city":"New York","geolocation":{"type":"Point","coordinates":[-74.00319,40.73138]}},{"name":"Vietspot","categories":"vietspot-new-york-3","city":"New York","geolocation":{"type":"Point","coordinates":[-74.0075637236,40.7105473461]}},{"name":"Bin 141","categories":"bin-141-new-york-2","city":"New York","geolocation":{"type":"Point","coordinates":[-73.98529,40.72391]}},{"name":"Elephant & Castle","categories":"elephant-and-castle-new-york","city":"New York","geolocation":{"type":"Point","coordinates":[-74.000729,40.736214]}},{"name":"Daily Provisions","categories":"daily-provisions-new-york","city":"New York","geolocation":{"type":"Point","coordinates":[-73.9876685,40.73768]}},{"name":"Peasant Stock","categories":"peasant-stock-new-york-2","city":"New York","geolocation":{"type":"Point","coordinates":[-73.9878529,40.7188335]}},{"name":"Van Leeuwen Ice Cream","categories":"van-leeuwen-ice-cream-new-york-8","city":"New York","geolocation":{"type":"Point","coordinates":[-73.98735,40.72151]}},{"name":"Xi'an Famous Foods","categories":"xian-famous-foods-new-york-33","city":"New York","geolocation":{"type":"Point","coordinates":[-74.0018838,40.730996]}},{"name":"Top Thai Greenwich","categories":"top-thai-greenwich-new-york","city":"New York","geolocation":{"type":"Point","coordinates":[-73.99939,40.72977]}},{"name":"Salud","categories":"salud-new-york-3","city":"New York","geolocation":{"type":"Point","coordinates":[-74.002151,40.725847]}},{"name":"Raku","categories":"raku-new-york-7","city":"New York","geolocation":{"type":"Point","coordinates":[-73.9866526052,40.7264988089]}},{"name":"Rosie's","categories":"rosies-new-york-2","city":"New York","geolocation":{"type":"Point","coordinates":[-73.99079,40.72492]}},{"name":"Taco Vista","categories":"taco-vista-new-york-2","city":"New York","geolocation":{"type":"Point","coordinates":[-74.0145479143,40.6927558869]}},{"name":"Fat Buddha","categories":"fat-buddha-new-york","city":"New York","geolocation":{"type":"Point","coordinates":[-73.9805949,40.7298105]}},{"name":"Cafeteria","categories":"cafeteria-new-york","city":"New York","geolocation":{"type":"Point","coordinates":[-73.9980747946,40.7405675901]}},{"name":"Happy Bones NYC","categories":"happy-bones-nyc-new-york","city":"New York","geolocation":{"type":"Point","coordinates":[-73.9970474,40.720726]}},{"name":"Cookshop","categories":"cookshop-new-york","city":"New York","geolocation":{"type":"Point","coordinates":[-74.0056084,40.7454251]}},{"name":"Banh Mi Saigon","categories":"banh-mi-saigon-new-york","city":"New York","geolocation":{"type":"Point","coordinates":[-73.99667,40.71936]}},{"name":"16 Handles","categories":"16-handles-new-york-2","city":"New York","geolocation":{"type":"Point","coordinates":[-73.9872966707,40.7296684214]}},{"name":"Flip'n Toss","categories":"flipn-toss-new-york","city":"New York","geolocation":{"type":"Point","coordinates":[-74.00364,40.73341]}},{"name":"Mooncake Foods","categories":"mooncake-foods-new-york","city":"New York","geolocation":{"type":"Point","coordinates":[-74.004562,40.7237776]}},{"name":"Street Taco","categories":"street-taco-new-york","city":"New York","geolocation":{"type":"Point","coordinates":[-73.98202,40.74097]}},{"name":"Fat Cat Kitchen","categories":"fat-cat-kitchen-new-york","city":"New York","geolocation":{"type":"Point","coordinates":[-73.98607,40.73314]}},{"name":"Westville East","categories":"westville-east-new-york-3","city":"New York","geolocation":{"type":"Point","coordinates":[-73.98213,40.72847]}},{"name":"Nansense","categories":"nansense-new-york-2","city":"New York","geolocation":{"type":"Point","coordinates":[-73.9941683732,40.7409334863]}},{"name":"12 Chairs Cafe","categories":"12-chairs-cafe-new-york","city":"New York","geolocation":{"type":"Point","coordinates":[-73.9653168,40.7145615]}},{"name":"Boundless Plains Espresso","categories":"boundless-plains-espresso-new-york","city":"New York","geolocation":{"type":"Point","coordinates":[-74.01378,40.70797]}},{"name":"Sweet House Drinks and Desserts - Chinatown","categories":"sweet-house-drinks-and-desserts-chinatown-new-york","city":"New York","geolocation":{"type":"Point","coordinates":[-73.99822,40.71545]}},{"name":"Boucherie Union Square","categories":"boucherie-union-square-new-york","city":"New York","geolocation":{"type":"Point","coordinates":[-73.98789,40.73715]}},{"name":"Rasa","categories":"rasa-new-york","city":"New York","geolocation":{"type":"Point","coordinates":[-73.9975674,40.7327654]}},{"name":"Veselka","categories":"veselka-new-york","city":"New York","geolocation":{"type":"Point","coordinates":[-73.9869689941,40.7289505005]}},{"name":"Taco Playa","categories":"taco-playa-new-york-2","city":"New York","geolocation":{"type":"Point","coordinates":[-74.00269,40.70737]}},{"name":"Van Leeuwen Ice Cream","categories":"van-leeuwen-ice-cream-new-york-23","city":"New York","geolocation":{"type":"Point","coordinates":[-73.98768,40.7277]}},{"name":"Ugly Kitchen","categories":"ugly-kitchen-new-york","city":"New York","geolocation":{"type":"Point","coordinates":[-73.9862178981,40.7266856651]}},{"name":"Kabisera","categories":"kabisera-new-york-2","city":"New York","geolocation":{"type":"Point","coordinates":[-73.98981,40.72088]}},{"name":"Aunt Jake's","categories":"aunt-jakes-new-york","city":"New York","geolocation":{"type":"Point","coordinates":[-73.9977161,40.7190315]}},{"name":"Atera","categories":"atera-new-york","city":"New York","geolocation":{"type":"Point","coordinates":[-74.0057,40.71694]}},{"name":"Shanghai 21","categories":"shanghai-21-new-york-2","city":"New York","geolocation":{"type":"Point","coordinates":[-73.99889,40.7144199]}},{"name":"Bap","categories":"bap-new-york","city":"New York","geolocation":{"type":"Point","coordinates":[-73.97802,40.74618]}},{"name":"Rabbit House Japanese Tapas & Sake Bar","categories":"rabbit-house-japanese-tapas-and-sake-bar-new-york","city":"New York","geolocation":{"type":"Point","coordinates":[-73.99329,40.71725]}},{"name":"Sam's Falafel Stand","categories":"sams-falafel-stand-new-york","city":"New York","geolocation":{"type":"Point","coordinates":[-74.0113380915,40.709039682]}},{"name":"Tacos Cholula","categories":"tacos-cholula-new-york","city":"New York","geolocation":{"type":"Point","coordinates":[-73.98605,40.72301]}},{"name":"Mughlai Grill","categories":"mughlai-grill-new-york","city":"New York","geolocation":{"type":"Point","coordinates":[-73.9840446,40.7210905]}},{"name":"Baar Baar","categories":"baar-baar-new-york-2","city":"New York","geolocation":{"type":"Point","coordinates":[-73.9915524,40.7244378855]}},{"name":"Raclette","categories":"raclette-new-york","city":"New York","geolocation":{"type":"Point","coordinates":[-73.980601,40.7289298]}},{"name":"Da Gennaro","categories":"da-gennaro-new-york","city":"New York","geolocation":{"type":"Point","coordinates":[-73.99794,40.71832]}},{"name":"Hungry Ghost Coffee","categories":"hungry-ghost-coffee-new-york","city":"New York","geolocation":{"type":"Point","coordinates":[-74.00758,40.71511]}},{"name":"Ningbo Cafe","categories":"ningbo-cafe-new-york-2","city":"New York","geolocation":{"type":"Point","coordinates":[-74.018318,40.7081329]}},{"name":"CAVA","categories":"cava-new-york-25","city":"New York","geolocation":{"type":"Point","coordinates":[-74.0087867,40.705912]}},{"name":"The Drunken Munkey - West Village","categories":"the-drunken-munkey-west-village-new-york","city":"New York","geolocation":{"type":"Point","coordinates":[-74.00253,40.73136]}},{"name":"Rivington Pizza","categories":"rivington-pizza-new-york","city":"New York","geolocation":{"type":"Point","coordinates":[-73.984627,40.719146]}},{"name":"Khe-Yo","categories":"khe-yo-new-york","city":"New York","geolocation":{"type":"Point","coordinates":[-74.008587,40.716906]}},{"name":"Five & Dime","categories":"five-and-dime-new-york","city":"New York","geolocation":{"type":"Point","coordinates":[-74.0080474702,40.7126429155]}},{"name":"Ba'al Cafe & Falafel","categories":"baal-cafe-and-falafel-new-york","city":"New York","geolocation":{"type":"Point","coordinates":[-74.0039,40.7244699]}},{"name":"Broken Coconut","categories":"broken-coconut-new-york","city":"New York","geolocation":{"type":"Point","coordinates":[-73.9933998,40.728143]}},{"name":"Diller","categories":"diller-new-york-3","city":"New York","geolocation":{"type":"Point","coordinates":[-73.989078,40.716465]}},{"name":"Surya","categories":"surya-new-york-3","city":"New York","geolocation":{"type":"Point","coordinates":[-73.99963,40.7281]}},{"name":"Izzies Cheesesteaks","categories":"izzies-cheesesteaks-new-york-2","city":"New York","geolocation":{"type":"Point","coordinates":[-73.98497,40.71982]}},{"name":"The Grey Dog - Nolita","categories":"the-grey-dog-nolita-new-york-3","city":"New York","geolocation":{"type":"Point","coordinates":[-73.99576,40.7229699]}},{"name":"Saigon Shack","categories":"saigon-shack-new-york","city":"New York","geolocation":{"type":"Point","coordinates":[-74.000629,40.72969]}},{"name":"ESSEN","categories":"essen-new-york-3","city":"New York","geolocation":{"type":"Point","coordinates":[-74.0120809525,40.7034525227]}},{"name":"Gotan - Chelsea","categories":"gotan-chelsea-new-york-4","city":"New York","geolocation":{"type":"Point","coordinates":[-73.9931791555,40.7407251237]}},{"name":"Dr Smood","categories":"dr-smood-new-york-11","city":"New York","geolocation":{"type":"Point","coordinates":[-74.01461,40.71526]}},{"name":"The Sabieng Thai","categories":"the-sabieng-thai-new-york","city":"New York","geolocation":{"type":"Point","coordinates":[-73.98722,40.72554]}},{"name":"Gelso & Grand","categories":"gelso-and-grand-new-york","city":"New York","geolocation":{"type":"Point","coordinates":[-73.9973777878,40.7194089547]}},{"name":"sweetgreen","categories":"sweetgreen-new-york-3","city":"New York","geolocation":{"type":"Point","coordinates":[-74.0097010834,40.7213353345]}},{"name":"Ramen Thukpa","categories":"ramen-thukpa-new-york","city":"New York","geolocation":{"type":"Point","coordinates":[-74.00398,40.73197]}},{"name":"Daily Goods","categories":"daily-goods-new-york","city":"New York","geolocation":{"type":"Point","coordinates":[-74.0058204,40.7074837]}},{"name":"800 Degrees Woodfired Kitchen","categories":"800-degrees-woodfired-kitchen-new-york","city":"New York","geolocation":{"type":"Point","coordinates":[-73.9848782,40.7477792]}},{"name":"Puglia Ristorante","categories":"puglia-ristorante-new-york","city":"New York","geolocation":{"type":"Point","coordinates":[-73.9976975651,40.7181606873]}},{"name":"Wolfnights","categories":"wolfnights-new-york-3","city":"New York","geolocation":{"type":"Point","coordinates":[-74.00252,40.7306]}},{"name":"brodo Broth Co.","categories":"brodo-broth-co-new-york-2","city":"New York","geolocation":{"type":"Point","coordinates":[-74.00625,40.73288]}},{"name":"Emily - West Village","categories":"emily-west-village-new-york","city":"New York","geolocation":{"type":"Point","coordinates":[-74.0038400074,40.7293300685]}},{"name":"The Pennsy","categories":"the-pennsy-new-york","city":"New York","geolocation":{"type":"Point","coordinates":[-73.9917,40.750305]}},{"name":"Dr Smood","categories":"dr-smood-new-york-3","city":"New York","geolocation":{"type":"Point","coordinates":[-73.98919,40.74432]}},{"name":"Nanoosh","categories":"nanoosh-new-york-4","city":"New York","geolocation":{"type":"Point","coordinates":[-73.99233,40.73425]}},{"name":"Blockheads","categories":"blockheads-new-york-13","city":"New York","geolocation":{"type":"Point","coordinates":[-73.98905,40.73123]}},{"name":"No Ho Juice Bar & Deli","categories":"no-ho-juice-bar-and-deli-new-york","city":"New York","geolocation":{"type":"Point","coordinates":[-73.9968021,40.7266505]}},{"name":"Smile To Go","categories":"smile-to-go-new-york-2","city":"New York","geolocation":{"type":"Point","coordinates":[-74.0001862,40.7195836]}},{"name":"4th Street Food Co-op","categories":"4th-street-food-co-op-new-york-2","city":"New York","geolocation":{"type":"Point","coordinates":[-73.99079,40.72667]}},{"name":"The Best of New York Food","categories":"the-best-of-new-york-food-new-york","city":"New York","geolocation":{"type":"Point","coordinates":[-74.00618,40.70656]}},{"name":"Blank Slate Tea","categories":"blank-slate-tea-new-york","city":"New York","geolocation":{"type":"Point","coordinates":[-73.98453,40.74537]}},{"name":"Le Petit Parisien","categories":"le-petit-parisien-new-york","city":"New York","geolocation":{"type":"Point","coordinates":[-73.98921,40.72821]}},{"name":"Bobwhite Counter","categories":"bobwhite-counter-new-york-4","city":"New York","geolocation":{"type":"Point","coordinates":[-73.97899,40.72365]}},{"name":"Kona Coffee and Company","categories":"kona-coffee-and-company-new-york","city":"New York","geolocation":{"type":"Point","coordinates":[-73.98988,40.72587]}},{"name":"Lucky Lee's","categories":"lucky-lees-new-york-2","city":"New York","geolocation":{"type":"Point","coordinates":[-73.99347,40.73292]}},{"name":"Ground Central","categories":"ground-central-new-york-3","city":"New York","geolocation":{"type":"Point","coordinates":[-73.97176,40.75014]}},{"name":"Pinto Garden","categories":"pinto-garden-new-york-3","city":"New York","geolocation":{"type":"Point","coordinates":[-73.9994844,40.734882]}},{"name":"Caf\u00e9 Grumpy","categories":"caf\u00e9-grumpy-new-york-3","city":"New York","geolocation":{"type":"Point","coordinates":[-73.998391,40.742571]}},{"name":"Momo Ramen","categories":"momo-ramen-new-york","city":"New York","geolocation":{"type":"Point","coordinates":[-73.95777,40.71147]}},{"name":"Bubby's High Line","categories":"bubbys-high-line-new-york","city":"New York","geolocation":{"type":"Point","coordinates":[-74.0078054871,40.7395398791]}},{"name":"Breakroom","categories":"breakroom-new-york","city":"New York","geolocation":{"type":"Point","coordinates":[-73.9999440121,40.7166907226]}},{"name":"Coast and Valley","categories":"coast-and-valley-new-york","city":"New York","geolocation":{"type":"Point","coordinates":[-73.95039,40.72288]}},{"name":"Kome Waza","categories":"kome-waza-new-york","city":"New York","geolocation":{"type":"Point","coordinates":[-74.01024,40.70351]}},{"name":"Davelle","categories":"davelle-new-york-2","city":"New York","geolocation":{"type":"Point","coordinates":[-73.98605,40.71852]}},{"name":"Ichiba Ramen","categories":"ichiba-ramen-new-york-2","city":"New York","geolocation":{"type":"Point","coordinates":[-73.9919199,40.73473]}},{"name":"Sathi","categories":"sathi-new-york","city":"New York","geolocation":{"type":"Point","coordinates":[-73.98528,40.73621]}},{"name":"The Bean","categories":"the-bean-new-york-4","city":"New York","geolocation":{"type":"Point","coordinates":[-73.98482,40.72827]}},{"name":"CAF\u00c9 MEDI","categories":"caf\u00e9-medi-new-york","city":"New York","geolocation":{"type":"Point","coordinates":[-73.98803,40.7199]}},{"name":"Gran Tivoli","categories":"gran-tivoli-new-york-2","city":"New York","geolocation":{"type":"Point","coordinates":[-73.99783,40.72104]}},{"name":"OatMeals","categories":"oatmeals-new-york-3","city":"New York","geolocation":{"type":"Point","coordinates":[-74.000533,40.730389]}},{"name":"Two Boots East Village","categories":"two-boots-east-village-new-york","city":"New York","geolocation":{"type":"Point","coordinates":[-73.98489,40.72369]}},{"name":"Juice Press","categories":"juice-press-new-york-36","city":"New York","geolocation":{"type":"Point","coordinates":[-74.01533,40.71156]}},{"name":"Seabird","categories":"seabird-new-york-2","city":"New York","geolocation":{"type":"Point","coordinates":[-74.0008299,40.73232]}},{"name":"Maman Nomad","categories":"maman-nomad-new-york","city":"New York","geolocation":{"type":"Point","coordinates":[-73.99023,40.74325]}},{"name":"Dough","categories":"dough-new-york-2","city":"New York","geolocation":{"type":"Point","coordinates":[-73.99243,40.73931]}},{"name":"Green Blend","categories":"green-blend-new-york","city":"New York","geolocation":{"type":"Point","coordinates":[-73.9958,40.74929]}},{"name":"Maison Thai","categories":"maison-thai-new-york-3","city":"New York","geolocation":{"type":"Point","coordinates":[-73.97601,40.74509]}},{"name":"Tavern on Jane","categories":"tavern-on-jane-new-york","city":"New York","geolocation":{"type":"Point","coordinates":[-74.00426,40.73822]}},{"name":"Tartinery Hudson Eats","categories":"tartinery-hudson-eats-new-york-3","city":"New York","geolocation":{"type":"Point","coordinates":[-74.01588,40.712338]}},{"name":"M\u00e9m\u00e9 Mediterranean","categories":"m\u00e9m\u00e9-mediterranean-new-york-4","city":"New York","geolocation":{"type":"Point","coordinates":[-74.00616,40.736412]}},{"name":"Monk Mcginn's","categories":"monk-mcginns-new-york","city":"New York","geolocation":{"type":"Point","coordinates":[-74.00972,40.71432]}},{"name":"Rizzo's Fine Pizza","categories":"rizzos-fine-pizza-new-york-4","city":"New York","geolocation":{"type":"Point","coordinates":[-73.984456,40.720852]}},{"name":"SMARTWICH","categories":"smartwich-new-york","city":"New York","geolocation":{"type":"Point","coordinates":[-73.989,40.73026]}},{"name":"MIGHTY Bowl","categories":"mighty-bowl-new-york-2","city":"New York","geolocation":{"type":"Point","coordinates":[-74.00049,40.72986]}},{"name":"Nur","categories":"nur-new-york-2","city":"New York","geolocation":{"type":"Point","coordinates":[-73.9888,40.73854]}},{"name":"Benares","categories":"benares-new-york-3","city":"New York","geolocation":{"type":"Point","coordinates":[-74.009209,40.71415]}},{"name":"Tokuyama Salon Caf\u00e9","categories":"tokuyama-salon-caf\u00e9-new-york","city":"New York","geolocation":{"type":"Point","coordinates":[-73.9802,40.72399]}},{"name":"Thelewala","categories":"thelewala-new-york","city":"New York","geolocation":{"type":"Point","coordinates":[-74.00068,40.72963]}},{"name":"GST Greenwich Sports Tavern Village","categories":"gst-greenwich-sports-tavern-village-new-york","city":"New York","geolocation":{"type":"Point","coordinates":[-74.0048,40.72975]}},{"name":"La Contenta","categories":"la-contenta-new-york","city":"New York","geolocation":{"type":"Point","coordinates":[-73.98691,40.71873]}},{"name":"Cafe Mogador","categories":"cafe-mogador-new-york","city":"New York","geolocation":{"type":"Point","coordinates":[-73.9845085144,40.7272587674]}},{"name":"Forkright","categories":"forkright-new-york-2","city":"New York","geolocation":{"type":"Point","coordinates":[-73.99379,40.74634]}},{"name":"Pommes Frites","categories":"pommes-frites-new-york-2","city":"New York","geolocation":{"type":"Point","coordinates":[-74.000152,40.730022]}},{"name":"Benny's Burritos","categories":"bennys-burritos-new-york","city":"New York","geolocation":{"type":"Point","coordinates":[-74.0021237785,40.7380740387]}},{"name":"Niche","categories":"niche-new-york-3","city":"New York","geolocation":{"type":"Point","coordinates":[-73.98518,40.71786]}},{"name":"Natural Frontier Market","categories":"natural-frontier-market-new-york-3","city":"New York","geolocation":{"type":"Point","coordinates":[-73.98218,40.7396]}},{"name":"Mezetto","categories":"mezetto-new-york","city":"New York","geolocation":{"type":"Point","coordinates":[-73.9889362577,40.7228863781]}},{"name":"Som Bo","categories":"som-bo-new-york-2","city":"New York","geolocation":{"type":"Point","coordinates":[-74.00136,40.74192]}},{"name":"Los Tacos No.1","categories":"los-tacos-no-1-new-york","city":"New York","geolocation":{"type":"Point","coordinates":[-74.0060838,40.7425547]}},{"name":"Short Stories","categories":"short-stories-new-york","city":"New York","geolocation":{"type":"Point","coordinates":[-73.99144,40.72671]}},{"name":"Sagaponack Bar & Grill","categories":"sagaponack-bar-and-grill-new-york-2","city":"New York","geolocation":{"type":"Point","coordinates":[-73.9907836914,40.7409324646]}},{"name":"B\u00c0O Tea House","categories":"b\u00e0o-tea-house-new-york-2","city":"New York","geolocation":{"type":"Point","coordinates":[-74.0004889567,40.7312487927]}},{"name":"Omai","categories":"omai-new-york-2","city":"New York","geolocation":{"type":"Point","coordinates":[-74.002563,40.744289]}},{"name":"Dos Toros","categories":"dos-toros-new-york-23","city":"New York","geolocation":{"type":"Point","coordinates":[-74.01333,40.70253]}},{"name":"Narcissa","categories":"narcissa-new-york","city":"New York","geolocation":{"type":"Point","coordinates":[-73.9909284947,40.7279081085]}},{"name":"Westville Bakery","categories":"westville-bakery-new-york","city":"New York","geolocation":{"type":"Point","coordinates":[-73.98336,40.72766]}},{"name":"The Maze","categories":"the-maze-new-york-3","city":"New York","geolocation":{"type":"Point","coordinates":[-73.9872499,40.747846]}},{"name":"Van Leeuwen Ice Cream","categories":"van-leeuwen-ice-cream-new-york-9","city":"New York","geolocation":{"type":"Point","coordinates":[-73.996098,40.721971]}},{"name":"Essex Taqueria","categories":"essex-taqueria-new-york","city":"New York","geolocation":{"type":"Point","coordinates":[-73.9877989,40.7197418]}},{"name":"Bessou","categories":"bessou-new-york","city":"New York","geolocation":{"type":"Point","coordinates":[-73.992675,40.725502]}},{"name":"Juicology Kitchen","categories":"juicology-kitchen-new-york","city":"New York","geolocation":{"type":"Point","coordinates":[-73.990384,40.747727]}},{"name":"Friend of A Farmer","categories":"friend-of-a-farmer-new-york","city":"New York","geolocation":{"type":"Point","coordinates":[-73.98677,40.73695]}},{"name":"Xe May Sandwich Shop","categories":"xe-may-sandwich-shop-new-york","city":"New York","geolocation":{"type":"Point","coordinates":[-73.98493,40.7272]}},{"name":"Chikarashi","categories":"chikarashi-new-york","city":"New York","geolocation":{"type":"Point","coordinates":[-73.99948,40.71787]}},{"name":"The Paris Cafe","categories":"the-paris-cafe-new-york","city":"New York","geolocation":{"type":"Point","coordinates":[-74.00159,40.70732]}},{"name":"Middle Eats","categories":"middle-eats-new-york","city":"New York","geolocation":{"type":"Point","coordinates":[-73.9953,40.74412]}},{"name":"ilili Box","categories":"ilili-box-new-york-5","city":"New York","geolocation":{"type":"Point","coordinates":[-74.00102,40.71897]}},{"name":"Ofrenda","categories":"ofrenda-new-york","city":"New York","geolocation":{"type":"Point","coordinates":[-74.00242,40.73391]}},{"name":"Lucid Caf\u00e9","categories":"lucid-caf\u00e9-new-york-4","city":"New York","geolocation":{"type":"Point","coordinates":[-73.97785,40.74874]}},{"name":"Galata Mediterranean Cuisine","categories":"galata-mediterranean-cuisine-new-york","city":"New York","geolocation":{"type":"Point","coordinates":[-73.97753,40.74531]}},{"name":"The Hummus & Pita","categories":"the-hummus-and-pita-new-york-8","city":"New York","geolocation":{"type":"Point","coordinates":[-74.00671,40.71474]}},{"name":"Hao Noodle Chelsea","categories":"hao-noodle-chelsea-new-york-7","city":"New York","geolocation":{"type":"Point","coordinates":[-74.00436,40.7406999]}},{"name":"Vegan O'Brien Baking Company","categories":"vegan-o-brien-baking-company-new-york","city":"New York","geolocation":{"type":"Point","coordinates":[-74.00714,40.71455]}},{"name":"M&J Asian Cuisine","categories":"m-and-j-asian-cuisine-new-york","city":"New York","geolocation":{"type":"Point","coordinates":[-73.9780369922,40.7292851718]}},{"name":"Afandi Grill","categories":"afandi-grill-new-york","city":"New York","geolocation":{"type":"Point","coordinates":[-73.98493,40.72842]}},{"name":"The Longshoreman","categories":"the-longshoreman-new-york","city":"New York","geolocation":{"type":"Point","coordinates":[-74.0027,40.68472]}},{"name":"Aurora Soho","categories":"aurora-soho-new-york","city":"New York","geolocation":{"type":"Point","coordinates":[-74.003199,40.723543]}},{"name":"Pho Vietnam","categories":"pho-vietnam-new-york-2","city":"New York","geolocation":{"type":"Point","coordinates":[-73.9944029,40.717587]}},{"name":"Umami Burger - Brookfield Place","categories":"umami-burger-brookfield-place-new-york-2","city":"New York","geolocation":{"type":"Point","coordinates":[-74.015913,40.713225]}},{"name":"sweetgreen","categories":"sweetgreen-new-york-13","city":"New York","geolocation":{"type":"Point","coordinates":[-74.008382,40.705586]}},{"name":"Molly's Cupcakes","categories":"mollys-cupcakes-new-york","city":"New York","geolocation":{"type":"Point","coordinates":[-74.00248,40.73014]}},{"name":"Tu Do Restaurant","categories":"tu-do-restaurant-new-york-3","city":"New York","geolocation":{"type":"Point","coordinates":[-73.9953305926,40.7178239198]}},{"name":"Thunder Bun","categories":"thunder-bun-new-york-3","city":"New York","geolocation":{"type":"Point","coordinates":[-74.0114968,40.7023139]}},{"name":"Wayla","categories":"wayla-new-york","city":"New York","geolocation":{"type":"Point","coordinates":[-73.99275,40.71828]}},{"name":"China Blue","categories":"china-blue-new-york","city":"New York","geolocation":{"type":"Point","coordinates":[-74.009958,40.724038]}},{"name":"Tings Jamaican Jerk Chicken","categories":"tings-jamaican-jerk-chicken-new-york","city":"New York","geolocation":{"type":"Point","coordinates":[-74.0061307,40.7422926]}},{"name":"marcellino tratoria & pizzeria","categories":"marcellino-tratoria-and-pizzeria-new-york-2","city":"New York","geolocation":{"type":"Point","coordinates":[-73.99666,40.72066]}},{"name":"Becky's Bites","categories":"beckys-bites-new-york","city":"New York","geolocation":{"type":"Point","coordinates":[-73.98423,40.72624]}},{"name":"Meryienda","categories":"meryienda-new-york-2","city":"New York","geolocation":{"type":"Point","coordinates":[-74.0094471,40.7464969]}},{"name":"Dante","categories":"dante-new-york","city":"New York","geolocation":{"type":"Point","coordinates":[-74.00165,40.72879]}},{"name":"Juice Press","categories":"juice-press-new-york-70","city":"New York","geolocation":{"type":"Point","coordinates":[-74.00981,40.71412]}},{"name":"Matchaful","categories":"matchaful-new-york-5","city":"New York","geolocation":{"type":"Point","coordinates":[-74.00398,40.72109]}},{"name":"Hummus Kitchen","categories":"hummus-kitchen-new-york-5","city":"New York","geolocation":{"type":"Point","coordinates":[-73.97983,40.74367]}},{"name":"Juice Generation","categories":"juice-generation-new-york-9","city":"New York","geolocation":{"type":"Point","coordinates":[-73.9969973947,40.7241123623]}},{"name":"Miznon","categories":"miznon-new-york","city":"New York","geolocation":{"type":"Point","coordinates":[-74.006206,40.742575]}},{"name":"Shuka","categories":"shuka-new-york-3","city":"New York","geolocation":{"type":"Point","coordinates":[-74.00283,40.72707]}},{"name":"Bareburger","categories":"bareburger-new-york-4","city":"New York","geolocation":{"type":"Point","coordinates":[-73.97814,40.74616]}},{"name":"Cheong Fun Cart","categories":"cheong-fun-cart-new-york","city":"New York","geolocation":{"type":"Point","coordinates":[-73.9963736857,40.7176279773]}},{"name":"Del Posto","categories":"del-posto-new-york","city":"New York","geolocation":{"type":"Point","coordinates":[-74.0075330133,40.7434155953]}},{"name":"DOMODOMO New York","categories":"domodomo-new-york-new-york-2","city":"New York","geolocation":{"type":"Point","coordinates":[-74.00167,40.72803]}}]