[{"name":"Jajaja","categories":"jajaja-new-york","city":"New York","geolocation":{"type":"Point","coordinates":[-73.9904247969,40.7141530317]}},{"name":"Petisco Vegano","categories":"petisco-vegano-new-york","city":"New York","geolocation":{"type":"Point","coordinates":[-73.988805,40.713928]}},{"name":"Original Buddha Bodai Kosher Vegetarian Restaurant","categories":"original-buddha-bodai-kosher-vegetarian-restaurant-new-york-3","city":"New York","geolocation":{"type":"Point","coordinates":[-73.9989484,40.7138543]}},{"name":"May Kaidee East Broadway","categories":"may-kaidee-east-broadway-new-york","city":"New York","geolocation":{"type":"Point","coordinates":[-73.9874649793,40.7140637]}},{"name":"Jack's Stir Brew Coffee","categories":"jacks-stir-brew-coffee-new-york-2","city":"New York","geolocation":{"type":"Point","coordinates":[-74.002356,40.707633]}},{"name":"Malibu Farm","categories":"malibu-farm-new-york-2","city":"New York","geolocation":{"type":"Point","coordinates":[-74.001749,40.705925]}},{"name":"Golden Diner","categories":"golden-diner-new-york-2","city":"New York","geolocation":{"type":"Point","coordinates":[-73.994,40.71244]}},{"name":"Michaeli Bakery","categories":"michaeli-bakery-new-york-2","city":"New York","geolocation":{"type":"Point","coordinates":[-73.992054,40.714349]}},{"name":"CC's Cafe","categories":"ccs-cafe-new-york-2","city":"New York","geolocation":{"type":"Point","coordinates":[-73.99452,40.71166]}},{"name":"Fong On","categories":"fong-on-new-york","city":"New York","geolocation":{"type":"Point","coordinates":[-73.9937,40.71417]}},{"name":"Wok Wok","categories":"wok-wok-new-york","city":"New York","geolocation":{"type":"Point","coordinates":[-73.99883,40.71406]}},{"name":"Van Leeuwen Ice Cream","categories":"van-leeuwen-ice-cream-new-york-7","city":"New York","geolocation":{"type":"Point","coordinates":[-74.0020983,40.7076975]}},{"name":"Cafe Patoro","categories":"cafe-patoro-new-york","city":"New York","geolocation":{"type":"Point","coordinates":[-74.0023160353,40.7072720975]}},{"name":"Hwa Yuan","categories":"hwa-yuan-new-york-2","city":"New York","geolocation":{"type":"Point","coordinates":[-73.99598,40.7137]}},{"name":"Tasty Hand-Pulled Noodles","categories":"tasty-hand-pulled-noodles-new-york","city":"New York","geolocation":{"type":"Point","coordinates":[-73.99787,40.7142]}},{"name":"Les Enfants de Boheme","categories":"les-enfants-de-boheme-new-york","city":"New York","geolocation":{"type":"Point","coordinates":[-73.9888503,40.7136187]}},{"name":"R17","categories":"r17-new-york","city":"New York","geolocation":{"type":"Point","coordinates":[-74.001748,40.70577]}},{"name":"Taco Playa","categories":"taco-playa-new-york-2","city":"New York","geolocation":{"type":"Point","coordinates":[-74.00269,40.70737]}},{"name":"Bellini Seaport","categories":"bellini-seaport-new-york","city":"New York","geolocation":{"type":"Point","coordinates":[-74.0013289824,40.7078464889]}},{"name":"Shanghai 21","categories":"shanghai-21-new-york-2","city":"New York","geolocation":{"type":"Point","coordinates":[-73.99889,40.7144199]}},{"name":"Little Canal","categories":"little-canal-new-york-2","city":"New York","geolocation":{"type":"Point","coordinates":[-73.990417,40.714309]}},{"name":"The Paris Cafe","categories":"the-paris-cafe-new-york","city":"New York","geolocation":{"type":"Point","coordinates":[-74.00159,40.70732]}},{"name":"Suteishi","categories":"suteishi-new-york","city":"New York","geolocation":{"type":"Point","coordinates":[-74.00194,40.70788]}},{"name":"The Fulton","categories":"the-fulton-new-york-2","city":"New York","geolocation":{"type":"Point","coordinates":[-74.0010633899,40.7053694327]}},{"name":"Mission Chinese","categories":"mission-chinese-new-york","city":"New York","geolocation":{"type":"Point","coordinates":[-73.98966,40.71386]}},{"name":"E Broadway Pizza","categories":"e-broadway-pizza-new-york","city":"New York","geolocation":{"type":"Point","coordinates":[-73.99197,40.7137]}},{"name":"Fishmarket Restaurant","categories":"fishmarket-restaurant-new-york","city":"New York","geolocation":{"type":"Point","coordinates":[-74.00192,40.70717]}},{"name":"Made Fresh Daily","categories":"made-fresh-daily-new-york","city":"New York","geolocation":{"type":"Point","coordinates":[-74.00221,40.70769]}},{"name":"T-Swirl Cr\u00eape","categories":"t-swirl-cr\u00eape-new-york-15","city":"New York","geolocation":{"type":"Point","coordinates":[-73.9985899,40.71393]}},{"name":"IL Brigante","categories":"il-brigante-new-york","city":"New York","geolocation":{"type":"Point","coordinates":[-74.002571,40.707492]}},{"name":"Ali Baba Organic Marketplace","categories":"ali-baba-organic-marketplace-new-york","city":"New York","geolocation":{"type":"Point","coordinates":[-73.9988233,40.7138025]}},{"name":"Cowgirl Seahorse","categories":"cowgirl-seahorse-new-york-2","city":"New York","geolocation":{"type":"Point","coordinates":[-74.0004532,40.7081358]}},{"name":"The Tuck Room","categories":"the-tuck-room-new-york","city":"New York","geolocation":{"type":"Point","coordinates":[-74.00325,40.70654]}},{"name":"Big Gay Ice Cream","categories":"big-gay-ice-cream-new-york-2","city":"New York","geolocation":{"type":"Point","coordinates":[-74.00306,40.70715]}},{"name":"The Little One","categories":"the-little-one-new-york","city":"New York","geolocation":{"type":"Point","coordinates":[-73.99095,40.71417]}},{"name":"Kopitiam","categories":"kopitiam-new-york","city":"New York","geolocation":{"type":"Point","coordinates":[-73.99091,40.71387]}},{"name":"Yumpling Food Truck","categories":"yumpling-food-truck-new-york-2","city":"New York","geolocation":{"type":"Point","coordinates":[-73.9801940918,40.760269165]}},{"name":"Chinese Tuxedo","categories":"chinese-tuxedo-new-york-2","city":"New York","geolocation":{"type":"Point","coordinates":[-73.99804,40.71433]}},{"name":"Hop Shing Restaurant","categories":"hop-shing-restaurant-new-york","city":"New York","geolocation":{"type":"Point","coordinates":[-73.99811,40.71418]}},{"name":"Dim Sum Go Go","categories":"dim-sum-go-go-new-york","city":"New York","geolocation":{"type":"Point","coordinates":[-73.9977319419,40.7132415736]}},{"name":"Ice & Vice","categories":"ice-and-vice-new-york-6","city":"New York","geolocation":{"type":"Point","coordinates":[-73.9868737828,40.714284272]}},{"name":"Sunshine Seafood Restaurant","categories":"sunshine-seafood-restaurant-new-york","city":"New York","geolocation":{"type":"Point","coordinates":[-73.9961364,40.71397]}},{"name":"Noodle Village","categories":"noodle-village-new-york","city":"New York","geolocation":{"type":"Point","coordinates":[-73.998803,40.714167]}},{"name":"Golden Unicorn","categories":"golden-unicorn-new-york","city":"New York","geolocation":{"type":"Point","coordinates":[-73.9971633644,40.7136770497]}},{"name":"Barbalu Restaurant","categories":"barbalu-restaurant-new-york","city":"New York","geolocation":{"type":"Point","coordinates":[-74.0020404,40.7074747]}},{"name":"Chatham Seafood Restaurant","categories":"chatham-seafood-restaurant-new-york-3","city":"New York","geolocation":{"type":"Point","coordinates":[-73.99833,40.714]}},{"name":"Lower East Side Pizza","categories":"lower-east-side-pizza-new-york-2","city":"New York","geolocation":{"type":"Point","coordinates":[-73.9891967773,40.7138977051]}},{"name":"Kimchi Taco","categories":"kimchi-taco-new-york-2","city":"New York","geolocation":{"type":"Point","coordinates":[-74.0148391724,40.7112121582]}},{"name":"Hop Kee","categories":"hop-kee-new-york","city":"New York","geolocation":{"type":"Point","coordinates":[-73.998889,40.714458]}},{"name":"MarkJoseph Steakhouse","categories":"markjoseph-steakhouse-new-york-2","city":"New York","geolocation":{"type":"Point","coordinates":[-74.00152,40.70837]}},{"name":"Pulqueria","categories":"pulqueria-new-york","city":"New York","geolocation":{"type":"Point","coordinates":[-73.99819,40.71448]}}]